{
  "results": [
    {
      "address": "560 Robert Ave, Santa Clara, CA 95050",
      "location": {
        "lat": "37.36438918183242",
        "lon": "-121.94475950059133"
      }
    },
    {
      "address": "3046 Magliocco Dr, San Jose, CA 95128",
      "location": {
        "lat": "37.312451660287365",
        "lon": "-121.9488001730878"
      }
    },
    {
      "address": "5088 Rice Ct, San Jose, CA 95111",
      "location": {
        "lat": "37.26535665130898",
        "lon": "-121.81767655226156"
      }
    },
    {
      "address": "2445 Rinconada Dr, San Jose, CA 95125",
      "location": {
        "lat": "37.28906151924586",
        "lon": "-121.8796515238949"
      }
    },
    {
      "address": "200 Edenvale Ave, San Jose, CA 95136",
      "location": {
        "lat": "37.26280422942287",
        "lon": "-121.82107686369295"
      }
    },
    {
      "address": "1660 Hope Dr, Santa Clara, CA 95054",
      "location": {
        "lat": "37.39836581933618",
        "lon": "-121.95631874172983"
      }
    },
    {
      "address": "11561 Berryessa Rd, San Jose, CA 95133",
      "location": {
        "lat": "37.365713384526984",
        "lon": "-121.88420653946345"
      }
    },
    {
      "address": "907 Bainbridge Ct, Sunnyvale, CA 94087",
      "location": {
        "lat": "37.34955030922989",
        "lon": "-122.05218856288819"
      }
    },
    {
      "address": "1066 Mitchell Ct, Campbell, CA 95128",
      "location": {
        "lat": "37.3025889101868",
        "lon": "-121.94202028178925"
      }
    },
    {
      "address": "167 Covington Ct, San Jose, CA 95136",
      "location": {
        "lat": "37.272456798524985",
        "lon": "-121.8380045637141"
      }
    },
    {
      "address": "2141 Nobili Ave, Santa Clara, CA 95051",
      "location": {
        "lat": "37.361680830677955",
        "lon": "-121.99146433639663"
      }
    },
    {
      "address": "4500 The Woods Dr, San Jose, CA 95136",
      "location": {
        "lat": "37.27517583108679",
        "lon": "-121.83383792336843"
      }
    },
    {
      "address": "555 Carver St, San Jose, CA 95127",
      "location": {
        "lat": "37.38011868645536",
        "lon": "-121.83826384653464"
      }
    },
    {
      "address": "20437 Sea Gull Way, Saratoga, CA 95070",
      "location": {
        "lat": "37.28943167437851",
        "lon": "-122.03106920475868"
      }
    },
    {
      "address": "10284 Ann Arbor Ct, Cupertino, CA 95014",
      "location": {
        "lat": "37.327045380000826",
        "lon": "-122.04551949064916"
      }
    },
    {
      "address": "2791 Ophelia Ave, San Jose, CA 95122",
      "location": {
        "lat": "37.31580734702728",
        "lon": "-121.81633461618648"
      }
    },
    {
      "address": "1822 Old Piedmont Rd, San Jose, CA 95132",
      "location": {
        "lat": "37.41805234517905",
        "lon": "-121.847459208814"
      }
    },
    {
      "address": "21726 Noonan Ct, Cupertino, CA 95014",
      "location": {
        "lat": "37.31603839836289",
        "lon": "-122.05431158144617"
      }
    },
    {
      "address": "765 Mahogany Ln, Sunnyvale, CA 94086",
      "location": {
        "lat": "37.3651082123561",
        "lon": "-122.01356542635047"
      }
    },
    {
      "address": "1385 San Tomas Aquino Rd, San Jose, CA 95130",
      "location": {
        "lat": "37.29889402808332",
        "lon": "-121.97703693118149"
      }
    },
    {
      "address": "2943 Kentridge Dr, San Jose, CA 95133",
      "location": {
        "lat": "37.37496896721449",
        "lon": "-121.83972032197963"
      }
    },
    {
      "address": "7463 Bollinger Rd, Cupertino, CA 95014",
      "location": {
        "lat": "37.31256464019829",
        "lon": "-122.03518809647585"
      }
    },
    {
      "address": "5169 Alum Rock Ave, San Jose, CA 95127",
      "location": {
        "lat": "37.37500779353734",
        "lon": "-121.82187852389717"
      }
    },
    {
      "address": "1350 Oakland Rd, San Jose, CA 95112",
      "location": {
        "lat": "37.370324660174234",
        "lon": "-121.892723074853"
      }
    },
    {
      "address": "1661 Senter Rd, San Jose, CA 95112",
      "location": {
        "lat": "37.31741492012399",
        "lon": "-121.86098861238233"
      }
    },
    {
      "address": "4800 Patrick Henry Dr, Santa Clara, CA 95054",
      "location": {
        "lat": "37.400323805607485",
        "lon": "-121.98599471438907"
      }
    },
    {
      "address": "4390 Silverberry Dr, San Jose, CA 95136",
      "location": {
        "lat": "37.27119569996794",
        "lon": "-121.83486551234878"
      }
    },
    {
      "address": "2045 Gateway Pl, San Jose, CA 95110",
      "location": {
        "lat": "37.37098092915873",
        "lon": "-121.92605833479256"
      }
    },
    {
      "address": "19461 Riesling Ct, Saratoga, CA 95070",
      "location": {
        "lat": "37.25505965382763",
        "lon": "-122.01247549424777"
      }
    },
    {
      "address": "1432 Old Bayshore Hwy, San Jose, CA 95112",
      "location": {
        "lat": "37.367661670852414",
        "lon": "-121.89910693409956"
      }
    },
    {
      "address": "2652 E Trimble Rd, San Jose, CA 95132",
      "location": {
        "lat": "37.40848428578253",
        "lon": "-121.88495451261842"
      }
    },
    {
      "address": "1995 N First St, San Jose, CA 95112",
      "location": {
        "lat": "37.37253465052688",
        "lon": "-121.91796073931874"
      }
    },
    {
      "address": "2250 Monroe St, Santa Clara, CA 95050",
      "location": {
        "lat": "37.36064510129699",
        "lon": "-121.9641070243107"
      }
    },
    {
      "address": "351 Meridian Ave, San Jose, CA 95126",
      "location": {
        "lat": "37.322718839610964",
        "lon": "-121.91376480788993"
      }
    },
    {
      "address": "2418 Villanova Rd, San Jose, CA 95130",
      "location": {
        "lat": "37.27806231474074",
        "lon": "-121.98934059051525"
      }
    },
    {
      "address": "675 Almanor Ave, Sunnyvale, CA 94085",
      "location": {
        "lat": "37.39832205562725",
        "lon": "-122.03273013977784"
      }
    },
    {
      "address": "2933 Millar Ave, Santa Clara, CA 95051",
      "location": {
        "lat": "37.35882661981892",
        "lon": "-121.98011802776783"
      }
    },
    {
      "address": "6211 Balsamo Dr, San Jose, CA 95129",
      "location": {
        "lat": "37.30643576669343",
        "lon": "-122.01327266628793"
      }
    },
    {
      "address": "11731 Southwood Dr, San Jose, CA 95130",
      "location": {
        "lat": "37.29742577309454",
        "lon": "-121.98443734690804"
      }
    },
    {
      "address": "850 Clarkston Dr, San Jose, CA 95136",
      "location": {
        "lat": "37.27144594579979",
        "lon": "-121.86671409932632"
      }
    },
    {
      "address": "20660 Lomita Ave, Saratoga, CA 95070",
      "location": {
        "lat": "37.25412686918431",
        "lon": "-122.03475016224047"
      }
    },
    {
      "address": "650 Lenfest Rd, San Jose, CA 95133",
      "location": {
        "lat": "37.36338225285588",
        "lon": "-121.86863228276854"
      }
    },
    {
      "address": "1805 S Winchester Blvd, Campbell, CA 95008",
      "location": {
        "lat": "37.29148568222685",
        "lon": "-121.94999721291646"
      }
    },
    {
      "address": "3480 Rancho View Ct, San Jose, CA 95132",
      "location": {
        "lat": "37.41209858911948",
        "lon": "-121.8461545923846"
      }
    },
    {
      "address": "250 Innovation Dr, San Jose, CA 95134",
      "location": {
        "lat": "37.40096646582061",
        "lon": "-121.93031596966925"
      }
    },
    {
      "address": "12788 Homes Dr, Saratoga, CA 95070",
      "location": {
        "lat": "37.2828222799248",
        "lon": "-122.00815904820529"
      }
    },
    {
      "address": "4195 Sierra Rd, San Jose, CA 95132",
      "location": {
        "lat": "37.41528832099145",
        "lon": "-121.82445082875051"
      }
    },
    {
      "address": "1601 Heron Ave, Sunnyvale, CA 94087",
      "location": {
        "lat": "37.34109498518512",
        "lon": "-122.0187984894942"
      }
    },
    {
      "address": "1030 Pennington Ln, Cupertino, CA 95014",
      "location": {
        "lat": "37.30955036465517",
        "lon": "-122.04935322826152"
      }
    },
    {
      "address": "99 Glen Eyrie Ave, San Jose, CA 95125",
      "location": {
        "lat": "37.31111380909465",
        "lon": "-121.90637643633295"
      }
    },
    {
      "address": "1139 Fawn Dr, Campbell, CA 95008",
      "location": {
        "lat": "37.27035215067231",
        "lon": "-121.97859558579404"
      }
    },
    {
      "address": "350 Cureton Pl, San Jose, CA 95127",
      "location": {
        "lat": "37.36699720633315",
        "lon": "-121.81581767851489"
      }
    },
    {
      "address": "636 Santa Barbara Terr, Sunnyvale, CA 94085",
      "location": {
        "lat": "37.39093882343318",
        "lon": "-122.01853381613566"
      }
    },
    {
      "address": "2867 Glen Donegal Dr, San Jose, CA 95148",
      "location": {
        "lat": "37.330009939317144",
        "lon": "-121.8032115302803"
      }
    },
    {
      "address": "524 Hyde Park Dr, San Jose, CA 95136",
      "location": {
        "lat": "37.26057143418474",
        "lon": "-121.85069236136113"
      }
    },
    {
      "address": "1182 Pomeroy Ave, Santa Clara, CA 95051",
      "location": {
        "lat": "37.34724305374281",
        "lon": "-121.98704680145774"
      }
    },
    {
      "address": "2854 Forbes Ave, Santa Clara, CA 95051",
      "location": {
        "lat": "37.332076740819204",
        "lon": "-121.97733145227373"
      }
    },
    {
      "address": "5150 Cherry Ave, San Jose, CA 95118",
      "location": {
        "lat": "37.2585236887341",
        "lon": "-121.87299859730624"
      }
    },
    {
      "address": "1242 Kifer Rd, Sunnyvale, CA 94086",
      "location": {
        "lat": "37.37245642922705",
        "lon": "-121.99391802120151"
      }
    },
    {
      "address": "1477 Cameo Dr, San Jose, CA 95129",
      "location": {
        "lat": "37.296423051048755",
        "lon": "-121.9921780685703"
      }
    },
    {
      "address": "20521 Debbie Ln, Saratoga, CA 95070",
      "location": {
        "lat": "37.27295358824448",
        "lon": "-122.03282115511593"
      }
    },
    {
      "address": "766 Duncardine Way, Sunnyvale, CA 94087",
      "location": {
        "lat": "37.34512292007051",
        "lon": "-122.01998816803939"
      }
    },
    {
      "address": "608 Mill Pond Dr, San Jose, CA 95125",
      "location": {
        "lat": "37.29576674703824",
        "lon": "-121.87027391902508"
      }
    },
    {
      "address": "2910 Aborn Square Rd, San Jose, CA 95121",
      "location": {
        "lat": "37.31354944926699",
        "lon": "-121.80821628418965"
      }
    },
    {
      "address": "14670 Sobey Rd, Saratoga, CA 95070",
      "location": {
        "lat": "37.25643415379929",
        "lon": "-121.99905521986794"
      }
    },
    {
      "address": "1189 Sandstone Ln, San Jose, CA 95132",
      "location": {
        "lat": "37.388752027730895",
        "lon": "-121.86081256535996"
      }
    },
    {
      "address": "2665 Villa Cortona Way, San Jose, CA 95125",
      "location": {
        "lat": "37.28658913515211",
        "lon": "-121.87126953797762"
      }
    },
    {
      "address": "400 S Abel St, Milpitas, CA 95035",
      "location": {
        "lat": "37.424449135137834",
        "lon": "-121.907132891425"
      }
    },
    {
      "address": "1608 Las Plumas Ave, San Jose, CA 95133",
      "location": {
        "lat": "37.35984729587649",
        "lon": "-121.86849279242081"
      }
    },
    {
      "address": "15900 Simoni Dr, San Jose, CA 95127",
      "location": {
        "lat": "37.38580600356676",
        "lon": "-121.80411617540982"
      }
    },
    {
      "address": "1695 Monterey Hwy, San Jose, CA 95112",
      "location": {
        "lat": "37.309956248292565",
        "lon": "-121.87020283730577"
      }
    },
    {
      "address": "986 Live Oak Dr, Santa Clara, CA 95051",
      "location": {
        "lat": "37.343917268421116",
        "lon": "-121.9845947892743"
      }
    },
    {
      "address": "1477 Crespi Dr, San Jose, CA 95129",
      "location": {
        "lat": "37.2961886253388",
        "lon": "-121.99155427269623"
      }
    },
    {
      "address": "4753 Allegro Ln, San Jose, CA 95111",
      "location": {
        "lat": "37.27552032169915",
        "lon": "-121.81308969631411"
      }
    },
    {
      "address": "10991 Edgemont Dr, San Jose, CA 95127",
      "location": {
        "lat": "37.38751144315023",
        "lon": "-121.81395901214296"
      }
    },
    {
      "address": "2416 Boxwood Dr, San Jose, CA 95128",
      "location": {
        "lat": "37.3367105881939",
        "lon": "-121.94787607916625"
      }
    },
    {
      "address": "4398 Zanker Rd, San Jose, CA 95134",
      "location": {
        "lat": "37.4351390059849",
        "lon": "-121.93562535923643"
      }
    },
    {
      "address": "1328 Karl St, San Jose, CA 95122",
      "location": {
        "lat": "37.34251150665583",
        "lon": "-121.83190758924798"
      }
    },
    {
      "address": "230 El Caminito Ave, Campbell, CA 95008",
      "location": {
        "lat": "37.28159082321196",
        "lon": "-121.95370752808238"
      }
    },
    {
      "address": "2430 Quantico Ct, San Jose, CA 95128",
      "location": {
        "lat": "37.30593216630552",
        "lon": "-121.935938020203"
      }
    },
    {
      "address": "1330 Glen Haven Dr, San Jose, CA 95129",
      "location": {
        "lat": "37.29965946024757",
        "lon": "-122.00018588044219"
      }
    },
    {
      "address": "2582 Orchard Pkwy, San Jose, CA 95131",
      "location": {
        "lat": "37.381740772071836",
        "lon": "-121.93115280440085"
      }
    },
    {
      "address": "3121 Flinthaven Dr, San Jose, CA 95148",
      "location": {
        "lat": "37.34279521677771",
        "lon": "-121.80582376539309"
      }
    },
    {
      "address": "5161 Barron Park Dr, San Jose, CA 95136",
      "location": {
        "lat": "37.25871786877724",
        "lon": "-121.84769326357632"
      }
    },
    {
      "address": "574 Continental Dr, San Jose, CA 95111",
      "location": {
        "lat": "37.276646029053246",
        "lon": "-121.81563466494431"
      }
    },
    {
      "address": "3488 Calaveras Rd, Milpitas, CA 95035",
      "location": {
        "lat": "37.44075270788885",
        "lon": "-121.84252005391403"
      }
    },
    {
      "address": "4350 Felter Rd, Milpitas, CA 95035",
      "location": {
        "lat": "37.43385515231853",
        "lon": "-121.82456759667072"
      }
    },
    {
      "address": "110 Falkirk Ct, Sunnyvale, CA 94087",
      "location": {
        "lat": "37.34361334562003",
        "lon": "-122.03176641073071"
      }
    },
    {
      "address": "1924 Montemar Way, Campbell, CA 95125",
      "location": {
        "lat": "37.290284161426456",
        "lon": "-121.9210814917721"
      }
    },
    {
      "address": "532 Lawrence Expy, Sunnyvale, CA 94085",
      "location": {
        "lat": "37.38312434257227",
        "lon": "-121.99504329010345"
      }
    },
    {
      "address": "1052 Luther Ave, San Jose, CA 95126",
      "location": {
        "lat": "37.327806414312604",
        "lon": "-121.91000902619672"
      }
    },
    {
      "address": "855 Minnesota Ave, San Jose, CA 95125",
      "location": {
        "lat": "37.30679657381241",
        "lon": "-121.89276243166162"
      }
    },
    {
      "address": "1276 Manet Dr, Sunnyvale, CA 94087",
      "location": {
        "lat": "37.352782653068374",
        "lon": "-122.02789696913044"
      }
    },
    {
      "address": "1565 Clampett Way, San Jose, CA 95131",
      "location": {
        "lat": "37.39157642010215",
        "lon": "-121.8762470228604"
      }
    },
    {
      "address": "590 N Capitol Ave, San Jose, CA 95133",
      "location": {
        "lat": "37.376099745149446",
        "lon": "-121.84811404096146"
      }
    },
    {
      "address": "2278 Trade Zone Blvd, San Jose, CA 95131",
      "location": {
        "lat": "37.402589906203204",
        "lon": "-121.88877084619612"
      }
    },
    {
      "address": "1290 N Central Ave, San Jose, CA 95128",
      "location": {
        "lat": "37.30604301881637",
        "lon": "-121.94322976590864"
      }
    },
    {
      "address": "1400 Parkmoor Ave, San Jose, CA 95126",
      "location": {
        "lat": "37.316017360468884",
        "lon": "-121.91333842296008"
      }
    },
    {
      "address": "1283 Terra Alta Dr, Milpitas, CA 95035",
      "location": {
        "lat": "37.42008132691597",
        "lon": "-121.86753941496059"
      }
    },
    {
      "address": "972 Rincon Cir, San Jose, CA 95131",
      "location": {
        "lat": "37.39832101481444",
        "lon": "-121.90898712130124"
      }
    },
    {
      "address": "4570 Madoc Way, San Jose, CA 95130",
      "location": {
        "lat": "37.2818704417357",
        "lon": "-121.98247493267665"
      }
    },
    {
      "address": "175 Baypointe Pkwy, San Jose, CA 95134",
      "location": {
        "lat": "37.413382378950246",
        "lon": "-121.94157076510332"
      }
    },
    {
      "address": "2175 Anthony Dr, San Jose, CA 95008",
      "location": {
        "lat": "37.282399335572926",
        "lon": "-121.97292533879202"
      }
    },
    {
      "address": "2668 Kimball Dr, San Jose, CA 95121",
      "location": {
        "lat": "37.30903928542736",
        "lon": "-121.83227299760894"
      }
    },
    {
      "address": "1020 McCarthy Blvd, Milpitas, CA 95035",
      "location": {
        "lat": "37.412318319062884",
        "lon": "-121.92095884647294"
      }
    },
    {
      "address": "7 Technology Dr, Milpitas, CA 95035",
      "location": {
        "lat": "37.41927103701132",
        "lon": "-121.92772681731867"
      }
    },
    {
      "address": "1204 Edith St, San Jose, CA 95122",
      "location": {
        "lat": "37.34361768063392",
        "lon": "-121.83399956674836"
      }
    },
    {
      "address": "4001 N First St, San Jose, CA 95134",
      "location": {
        "lat": "37.41247192674197",
        "lon": "-121.9528784287886"
      }
    },
    {
      "address": "1520 E Capitol Expy, San Jose, CA 95121",
      "location": {
        "lat": "37.301090839846786",
        "lon": "-121.81282190045088"
      }
    },
    {
      "address": "484 Auzerais Ave, San Jose, CA 95126",
      "location": {
        "lat": "37.32478065468851",
        "lon": "-121.89667735182758"
      }
    },
    {
      "address": "912 Riverside Dr, San Jose, CA 95125",
      "location": {
        "lat": "37.31516619025517",
        "lon": "-121.90212715895036"
      }
    },
    {
      "address": "330 Gordon Ave, San Jose, CA 95127",
      "location": {
        "lat": "37.38284320879187",
        "lon": "-121.8230423252357"
      }
    },
    {
      "address": "2107 Seacliff Dr, Milpitas, CA 95035",
      "location": {
        "lat": "37.42800502922362",
        "lon": "-121.86588033777541"
      }
    },
    {
      "address": "13070 La Vista Dr, Saratoga, CA 95070",
      "location": {
        "lat": "37.278858764138086",
        "lon": "-122.01710523778307"
      }
    },
    {
      "address": "2880 Lakeside Dr, Santa Clara, CA 95054",
      "location": {
        "lat": "37.38375575958528",
        "lon": "-121.98013684273492"
      }
    },
    {
      "address": "3681 Eastwood Cir, Santa Clara, CA 95054",
      "location": {
        "lat": "37.39084991436749",
        "lon": "-121.93958774012384"
      }
    },
    {
      "address": "532 E Weddell Dr, Sunnyvale, CA 94089",
      "location": {
        "lat": "37.39709761174086",
        "lon": "-122.01422488409102"
      }
    },
    {
      "address": "2960 Heidi Dr, San Jose, CA 95132",
      "location": {
        "lat": "37.39394148447003",
        "lon": "-121.85632999622918"
      }
    },
    {
      "address": "1594 Tolbert Dr, San Jose, CA 95122",
      "location": {
        "lat": "37.3220761800914",
        "lon": "-121.8309394292015"
      }
    },
    {
      "address": "1645 The Alameda, San Jose, CA 95126",
      "location": {
        "lat": "37.336003083990974",
        "lon": "-121.91781770431224"
      }
    },
    {
      "address": "2240 Agnew Rd, Santa Clara, CA 95054",
      "location": {
        "lat": "37.391931109770276",
        "lon": "-121.96416478569101"
      }
    },
    {
      "address": "1530 Santa Maria Ave, San Jose, CA 95125",
      "location": {
        "lat": "37.298957100503465",
        "lon": "-121.90995549842683"
      }
    },
    {
      "address": "2797 Scott Blvd, Santa Clara, CA 95050",
      "location": {
        "lat": "37.371155519209886",
        "lon": "-121.95846093399318"
      }
    },
    {
      "address": "585 Fenton St, San Jose, CA 95127",
      "location": {
        "lat": "37.384186853144826",
        "lon": "-121.83248590701152"
      }
    },
    {
      "address": "1470 E San Antonio St, San Jose, CA 95116",
      "location": {
        "lat": "37.346442480588664",
        "lon": "-121.85940573792061"
      }
    },
    {
      "address": "4115 Golf Dr, San Jose, CA 95127",
      "location": {
        "lat": "37.3885732158439",
        "lon": "-121.82495105627412"
      }
    },
    {
      "address": "817 Duncardine Way, Sunnyvale, CA 94087",
      "location": {
        "lat": "37.34545399008284",
        "lon": "-122.01814570740858"
      }
    },
    {
      "address": "1883 Agnew Rd, Santa Clara, CA 95054",
      "location": {
        "lat": "37.39620799951901",
        "lon": "-121.95935243631499"
      }
    },
    {
      "address": "140 S Bayview Ave, Sunnyvale, CA 94086",
      "location": {
        "lat": "37.37590649289688",
        "lon": "-122.02592905353227"
      }
    },
    {
      "address": "2026 Nunes Dr, San Jose, CA 95131",
      "location": {
        "lat": "37.390210306817934",
        "lon": "-121.87714092990596"
      }
    },
    {
      "address": "470 S 16th St, San Jose, CA 95112",
      "location": {
        "lat": "37.33629923212585",
        "lon": "-121.8697441810783"
      }
    },
    {
      "address": "213 N Westridge Dr, Santa Clara, CA 95050",
      "location": {
        "lat": "37.32501259321138",
        "lon": "-121.95653921008443"
      }
    },
    {
      "address": "887 Hermiston Dr, San Jose, CA 95136",
      "location": {
        "lat": "37.27078558783889",
        "lon": "-121.86767777217293"
      }
    },
    {
      "address": "900 Monica Ln, Campbell, CA 95008",
      "location": {
        "lat": "37.30065881933594",
        "lon": "-121.94447846348135"
      }
    },
    {
      "address": "5504 Monterey Hwy, San Jose, CA 95138",
      "location": {
        "lat": "37.25556051032838",
        "lon": "-121.8015289957306"
      }
    },
    {
      "address": "1573 Cross Way, San Jose, CA 95125",
      "location": {
        "lat": "37.30631435587623",
        "lon": "-121.8820863089561"
      }
    },
    {
      "address": "2718 Taft Ave, Santa Clara, CA 95051",
      "location": {
        "lat": "37.33231120168767",
        "lon": "-121.97186949183711"
      }
    },
    {
      "address": "2909 Leigh Ave, San Jose, CA 95124",
      "location": {
        "lat": "37.26855347248281",
        "lon": "-121.92188848758063"
      }
    },
    {
      "address": "4679 Applewood Dr, San Jose, CA 95129",
      "location": {
        "lat": "37.31032345743168",
        "lon": "-121.9856370428426"
      }
    },
    {
      "address": "1903 Somersworth Dr, San Jose, CA 95124",
      "location": {
        "lat": "37.27735691814618",
        "lon": "-121.92551868824899"
      }
    },
    {
      "address": "4398 Zanker Rd, San Jose, CA 95134",
      "location": {
        "lat": "37.43692653470177",
        "lon": "-121.93573157389392"
      }
    },
    {
      "address": "1452 Kimberly Dr, San Jose, CA 95118",
      "location": {
        "lat": "37.267843212981425",
        "lon": "-121.89013515594326"
      }
    },
    {
      "address": "862 Brevins Loop, San Jose, CA 95125",
      "location": {
        "lat": "37.28145042188817",
        "lon": "-121.87476978125088"
      }
    },
    {
      "address": "46 Eastwood Ct, San Jose, CA 95116",
      "location": {
        "lat": "37.35263649101678",
        "lon": "-121.85897780991682"
      }
    },
    {
      "address": "5064 Shady Ave, San Jose, CA 95129",
      "location": {
        "lat": "37.30120744904183",
        "lon": "-121.99041863329485"
      }
    },
    {
      "address": "101 W Younger Ave, San Jose, CA 95110",
      "location": {
        "lat": "37.35378324192526",
        "lon": "-121.90839216892122"
      }
    },
    {
      "address": "21116 Comer Dr, Saratoga, CA 95070",
      "location": {
        "lat": "37.27833933498725",
        "lon": "-122.04433874229586"
      }
    },
    {
      "address": "12000 Crothers Rd, San Jose, CA 95127",
      "location": {
        "lat": "37.38769061581271",
        "lon": "-121.79961716280033"
      }
    },
    {
      "address": "338 N 12th St, San Jose, CA 95112",
      "location": {
        "lat": "37.34698596233154",
        "lon": "-121.88255028081346"
      }
    },
    {
      "address": "3885 Grandbrook Way, San Jose, CA 95111",
      "location": {
        "lat": "37.29096524704279",
        "lon": "-121.82058597955013"
      }
    },
    {
      "address": "1569 Lochinvar Ave, Sunnyvale, CA 94087",
      "location": {
        "lat": "37.3428163957894",
        "lon": "-122.00368070516619"
      }
    },
    {
      "address": "2831 Mission College Blvd, Santa Clara, CA 95054",
      "location": {
        "lat": "37.388359339619825",
        "lon": "-121.97797515454647"
      }
    },
    {
      "address": "1385 Martin Ave, San Jose, CA 95126",
      "location": {
        "lat": "37.32861679623817",
        "lon": "-121.91709231304431"
      }
    },
    {
      "address": "1045 E Brokaw Rd, San Jose, CA 95131",
      "location": {
        "lat": "37.384473347181",
        "lon": "-121.89871088133559"
      }
    },
    {
      "address": "2827 Sycamore Way, Santa Clara, CA 95051",
      "location": {
        "lat": "37.33090146002433",
        "lon": "-121.9771021084596"
      }
    },
    {
      "address": "2281 Glenkirk Dr, San Jose, CA 95124",
      "location": {
        "lat": "37.281509553951246",
        "lon": "-121.91434891899468"
      }
    },
    {
      "address": "2485 Glen Duff Way, San Jose, CA 95148",
      "location": {
        "lat": "37.329935491079134",
        "lon": "-121.80814934377483"
      }
    },
    {
      "address": "1404 Sonoma Dr, Milpitas, CA 95035",
      "location": {
        "lat": "37.4205770404694",
        "lon": "-121.87615785665601"
      }
    },
    {
      "address": "1557 Orangewood Dr, San Jose, CA 95121",
      "location": {
        "lat": "37.308633326603115",
        "lon": "-121.82080904749257"
      }
    },
    {
      "address": "1271 Anvilwood Ave, Sunnyvale, CA 94089",
      "location": {
        "lat": "37.40782473046263",
        "lon": "-121.99392789474904"
      }
    },
    {
      "address": "216 Cristich Ln, Campbell, CA 95008",
      "location": {
        "lat": "37.27801636795711",
        "lon": "-121.9436589389911"
      }
    },
    {
      "address": "5449 Felter Rd, San Jose, CA 95132",
      "location": {
        "lat": "37.43306604291986",
        "lon": "-121.80763687499682"
      }
    },
    {
      "address": "760 Glen Mead Ct, San Jose, CA 95133",
      "location": {
        "lat": "37.381547254886",
        "lon": "-121.84833036285995"
      }
    },
    {
      "address": "3975 McLaughlin Ave, San Jose, CA 95121",
      "location": {
        "lat": "37.29233885972506",
        "lon": "-121.814704648089"
      }
    },
    {
      "address": "6795 Mason Way, San Jose, CA 95129",
      "location": {
        "lat": "37.30869313032202",
        "lon": "-122.02339146002393"
      }
    },
    {
      "address": "1363 Teakwood Dr, San Jose, CA 95128",
      "location": {
        "lat": "37.2994683087837",
        "lon": "-121.94725753810548"
      }
    },
    {
      "address": "4551 Great America Pkwy, Santa Clara, CA 95054",
      "location": {
        "lat": "37.39500600293842",
        "lon": "-121.97741181219726"
      }
    },
    {
      "address": "1171 Lennon Way, San Jose, CA 95125",
      "location": {
        "lat": "37.293388771649326",
        "lon": "-121.89286238552204"
      }
    },
    {
      "address": "1800 Rocky Mountain Ave, Milpitas, CA 95035",
      "location": {
        "lat": "37.420888277370246",
        "lon": "-121.86766093087945"
      }
    },
    {
      "address": "545 S Ninth St, San Jose, CA 95112",
      "location": {
        "lat": "37.33181336796554",
        "lon": "-121.87638691232218"
      }
    },
    {
      "address": "696 N 12th St, San Jose, CA 95112",
      "location": {
        "lat": "37.354251021265554",
        "lon": "-121.88841503873662"
      }
    },
    {
      "address": "3090 Homestead Rd, Santa Clara, CA 95051",
      "location": {
        "lat": "37.337168044180814",
        "lon": "-121.98435462935934"
      }
    },
    {
      "address": "11351 Bubb Rd, Cupertino, CA 95014",
      "location": {
        "lat": "37.303053460701626",
        "lon": "-122.0507753880756"
      }
    },
    {
      "address": "1562 Jacob Ave, San Jose, CA 95118",
      "location": {
        "lat": "37.263335854739914",
        "lon": "-121.89798468789917"
      }
    },
    {
      "address": "3419 Borge Ct, San Jose, CA 95132",
      "location": {
        "lat": "37.40486693501011",
        "lon": "-121.84353252771581"
      }
    },
    {
      "address": "4090 Golf Dr, San Jose, CA 95127",
      "location": {
        "lat": "37.38828266766769",
        "lon": "-121.82564608627399"
      }
    },
    {
      "address": "292 Gibraltar Dr, Sunnyvale, CA 94089",
      "location": {
        "lat": "37.40917553658547",
        "lon": "-122.0150422022122"
      }
    },
    {
      "address": "14132 Taos Dr, Saratoga, CA 95070",
      "location": {
        "lat": "37.26280604262836",
        "lon": "-122.01753974520022"
      }
    },
    {
      "address": "3770 Honolulu Dr, San Jose, CA 95111",
      "location": {
        "lat": "37.287594428124464",
        "lon": "-121.82321113697024"
      }
    },
    {
      "address": "123 Duane St, San Jose, CA 95110",
      "location": {
        "lat": "37.32476372335549",
        "lon": "-121.88476937705346"
      }
    },
    {
      "address": "7375 Rollingdell Dr, Cupertino, CA 95014",
      "location": {
        "lat": "37.30705417657199",
        "lon": "-122.03376400626995"
      }
    },
    {
      "address": "1154 Brandybuck Way, San Jose, CA 95121",
      "location": {
        "lat": "37.29844154453979",
        "lon": "-121.82028749506132"
      }
    },
    {
      "address": "520 E Julian St, San Jose, CA 95112",
      "location": {
        "lat": "37.345606159284706",
        "lon": "-121.88260968162685"
      }
    },
    {
      "address": "20021 Stevens Creek Blvd, Cupertino, CA 95014",
      "location": {
        "lat": "37.32328558476134",
        "lon": "-122.02409911968783"
      }
    },
    {
      "address": "920 Stewart Dr, Sunnyvale, CA 94085",
      "location": {
        "lat": "37.38333661287115",
        "lon": "-122.00564870730469"
      }
    },
    {
      "address": "145 Aguacate Ct, San Jose, CA 95116",
      "location": {
        "lat": "37.35990840370935",
        "lon": "-121.85006268144835"
      }
    },
    {
      "address": "4116 Carola Ct, San Jose, CA 95130",
      "location": {
        "lat": "37.29625292912444",
        "lon": "-121.97400778015904"
      }
    },
    {
      "address": "1483 Carrington Cir, San Jose, CA 95125",
      "location": {
        "lat": "37.274453502234294",
        "lon": "-121.89441045336429"
      }
    },
    {
      "address": "80 W Rincon Ave, Campbell, CA 95008",
      "location": {
        "lat": "37.28458979930953",
        "lon": "-121.95116207931173"
      }
    },
    {
      "address": "1208 Arlington Ln, San Jose, CA 95129",
      "location": {
        "lat": "37.30206337687002",
        "lon": "-122.02686691859539"
      }
    },
    {
      "address": "1764 Wayne Cir, San Jose, CA 95131",
      "location": {
        "lat": "37.38810011636046",
        "lon": "-121.8967094370427"
      }
    },
    {
      "address": "3147 Cropley Ave, San Jose, CA 95132",
      "location": {
        "lat": "37.40869856364589",
        "lon": "-121.87121435530925"
      }
    },
    {
      "address": "7472 Dumas Dr, Cupertino, CA 95014",
      "location": {
        "lat": "37.310487301796",
        "lon": "-122.03558113053492"
      }
    },
    {
      "address": "10129 Mello Pl, Cupertino, CA 95014",
      "location": {
        "lat": "37.32155629941513",
        "lon": "-122.02165342248271"
      }
    },
    {
      "address": "705 Los Esteros Rd, San Jose, CA 95134",
      "location": {
        "lat": "37.438824868619875",
        "lon": "-121.9483561849073"
      }
    },
    {
      "address": "1400 Parkmoor Ave, San Jose, CA 95126",
      "location": {
        "lat": "37.31648014249057",
        "lon": "-121.91186677986566"
      }
    },
    {
      "address": "967 Bellomo Ave, Sunnyvale, CA 94086",
      "location": {
        "lat": "37.35674576814265",
        "lon": "-122.01589885702124"
      }
    },
    {
      "address": "14599 Clearview Dr, Los Gatos, CA 95032",
      "location": {
        "lat": "37.25579636891323",
        "lon": "-121.97522133616627"
      }
    },
    {
      "address": "4950 Patrick Henry Dr, Santa Clara, CA 95054",
      "location": {
        "lat": "37.40214084255406",
        "lon": "-121.9862635733461"
      }
    },
    {
      "address": "120 E Gish Rd, San Jose, CA 95112",
      "location": {
        "lat": "37.36262615228274",
        "lon": "-121.90704323983456"
      }
    },
    {
      "address": "1546 Hallcrest Dr, San Jose, CA 95118",
      "location": {
        "lat": "37.261627792564745",
        "lon": "-121.89755185169855"
      }
    },
    {
      "address": "20565 Verde Vista Ln, Saratoga, CA 95070",
      "location": {
        "lat": "37.26926218409427",
        "lon": "-122.03342079524668"
      }
    },
    {
      "address": "1139 Delynn Way, San Jose, CA 95125",
      "location": {
        "lat": "37.28452278655465",
        "lon": "-121.88511188006464"
      }
    },
    {
      "address": "215 Chateau La Salle Dr, San Jose, CA 95111",
      "location": {
        "lat": "37.29364637931837",
        "lon": "-121.85646336825212"
      }
    },
    {
      "address": "439 S First St, San Jose, CA 95113",
      "location": {
        "lat": "37.329282563310244",
        "lon": "-121.88583353919012"
      }
    },
    {
      "address": "1039 Montague Expy, Milpitas, CA 95035",
      "location": {
        "lat": "37.41686115671421",
        "lon": "-121.88370926535082"
      }
    },
    {
      "address": "13160 Haga Dr, San Jose, CA 95111",
      "location": {
        "lat": "37.28529359317857",
        "lon": "-121.83581090210414"
      }
    },
    {
      "address": "11740 Berryessa Rd, San Jose, CA 95133",
      "location": {
        "lat": "37.366169441552174",
        "lon": "-121.87954007417827"
      }
    },
    {
      "address": "1626 Orlando Dr, San Jose, CA 95122",
      "location": {
        "lat": "37.333692585017566",
        "lon": "-121.83566756337957"
      }
    },
    {
      "address": "771 Nevin Way, San Jose, CA 95128",
      "location": {
        "lat": "37.31272317048478",
        "lon": "-121.91762384829154"
      }
    },
    {
      "address": "1522 Redding Park Ln, Campbell, CA 95008",
      "location": {
        "lat": "37.26490499695859",
        "lon": "-121.94468415044454"
      }
    },
    {
      "address": "12147 Parker Ranch Rd, Saratoga, CA 95070",
      "location": {
        "lat": "37.29201371922977",
        "lon": "-122.04363820085517"
      }
    },
    {
      "address": "1203 Willo Mar Dr, San Jose, CA 95118",
      "location": {
        "lat": "37.276788648016236",
        "lon": "-121.88230593345955"
      }
    },
    {
      "address": "630 Martin Ave, Santa Clara, CA 95050",
      "location": {
        "lat": "37.36480631937701",
        "lon": "-121.94615446622366"
      }
    },
    {
      "address": "809 Acacia Ave, Sunnyvale, CA 94086",
      "location": {
        "lat": "37.37906473268124",
        "lon": "-122.01885237995126"
      }
    },
    {
      "address": "346 Manzanita Ct, Milpitas, CA 95035",
      "location": {
        "lat": "37.40561061650899",
        "lon": "-121.90863914553272"
      }
    },
    {
      "address": "992 Princess Anne Dr, San Jose, CA 95128",
      "location": {
        "lat": "37.30778917778818",
        "lon": "-121.9277171676428"
      }
    },
    {
      "address": "850 Lori Ave, Sunnyvale, CA 94086",
      "location": {
        "lat": "37.38393026706243",
        "lon": "-122.03842852138737"
      }
    },
    {
      "address": "1330 Sunnycrest Cir, San Jose, CA 95122",
      "location": {
        "lat": "37.32032261614264",
        "lon": "-121.83582001562408"
      }
    },
    {
      "address": "18436 Chelmsford Dr, Cupertino, CA 95014",
      "location": {
        "lat": "37.31236222248772",
        "lon": "-121.9984071097802"
      }
    },
    {
      "address": "3235 Kifer Rd, Santa Clara, CA 95051",
      "location": {
        "lat": "37.37422970684385",
        "lon": "-121.98497971072203"
      }
    },
    {
      "address": "1584 Grackle Way, Sunnyvale, CA 94087",
      "location": {
        "lat": "37.341940019496874",
        "lon": "-122.01931221196648"
      }
    },
    {
      "address": "71 Vista Monta√±a, San Jose, CA 95134",
      "location": {
        "lat": "37.41406666872673",
        "lon": "-121.95699551162518"
      }
    },
    {
      "address": "1980 Tarob Ct, Milpitas, CA 95035",
      "location": {
        "lat": "37.40640277439617",
        "lon": "-121.89061623526626"
      }
    },
    {
      "address": "1220 Vienna Dr, Sunnyvale, CA 94089",
      "location": {
        "lat": "37.40213947186536",
        "lon": "-121.9989998773383"
      }
    },
    {
      "address": "425 Firloch Ave, Sunnyvale, CA 94086",
      "location": {
        "lat": "37.37089841880294",
        "lon": "-122.02118772887705"
      }
    },
    {
      "address": "4120 Holly Dr, San Jose, CA 95127",
      "location": {
        "lat": "37.38979064916355",
        "lon": "-121.82572265562757"
      }
    },
    {
      "address": "1528 Hallcrest Dr, San Jose, CA 95118",
      "location": {
        "lat": "37.2623071024169",
        "lon": "-121.89585843718751"
      }
    },
    {
      "address": "1380 Kifer Rd, Sunnyvale, CA 94086",
      "location": {
        "lat": "37.373180172478065",
        "lon": "-121.9868891323002"
      }
    },
    {
      "address": "852 Knollfield Way, San Jose, CA 95136",
      "location": {
        "lat": "37.26710055529156",
        "lon": "-121.86688693863553"
      }
    },
    {
      "address": "205 Burnham Ct, Campbell, CA 95008",
      "location": {
        "lat": "37.289201385883025",
        "lon": "-121.97541409304998"
      }
    },
    {
      "address": "4430 Hamilton Ave, San Jose, CA 95130",
      "location": {
        "lat": "37.29355657901275",
        "lon": "-121.98010761679107"
      }
    },
    {
      "address": "640 W California Ave, Sunnyvale, CA 94086",
      "location": {
        "lat": "37.382144307805014",
        "lon": "-122.03664298179994"
      }
    },
    {
      "address": "880 E Estates Dr, Cupertino, CA 95014",
      "location": {
        "lat": "37.31267683963274",
        "lon": "-122.01962487951643"
      }
    },
    {
      "address": "1541 Hallcrest Dr, San Jose, CA 95118",
      "location": {
        "lat": "37.26213532849053",
        "lon": "-121.89706114303198"
      }
    },
    {
      "address": "18681 Harleigh Dr, Saratoga, CA 95070",
      "location": {
        "lat": "37.26944424753603",
        "lon": "-121.99704055095945"
      }
    },
    {
      "address": "3186 Fernside Square, San Jose, CA 95132",
      "location": {
        "lat": "37.411467361989764",
        "lon": "-121.86302630064878"
      }
    },
    {
      "address": "839 Upton Way, San Jose, CA 95136",
      "location": {
        "lat": "37.26954128209627",
        "lon": "-121.86694414926902"
      }
    },
    {
      "address": "417 Coyote Creek Cir, San Jose, CA 95116",
      "location": {
        "lat": "37.35209445917966",
        "lon": "-121.87251495417881"
      }
    },
    {
      "address": "2183 Casa Mia Dr, San Jose, CA 95124",
      "location": {
        "lat": "37.26593997035499",
        "lon": "-121.937669624029"
      }
    },
    {
      "address": "1425 Dubert Ln, San Jose, CA 95122",
      "location": {
        "lat": "37.32933827775278",
        "lon": "-121.84434003503426"
      }
    },
    {
      "address": "1265 N Capitol Ave, San Jose, CA 95132",
      "location": {
        "lat": "37.388536525378456",
        "lon": "-121.86455715290717"
      }
    },
    {
      "address": "1000 W Maude Ave, Sunnyvale, CA 94085",
      "location": {
        "lat": "37.39236837243866",
        "lon": "-122.04206928104303"
      }
    },
    {
      "address": "595 Vermont St, San Jose, CA 95110",
      "location": {
        "lat": "37.34761769521498",
        "lon": "-121.91820812683837"
      }
    },
    {
      "address": "1035 Lanark Ct, Sunnyvale, CA 94087",
      "location": {
        "lat": "37.34026184943704",
        "lon": "-122.00581764600183"
      }
    },
    {
      "address": "7640 Berland Ct, Cupertino, CA 95014",
      "location": {
        "lat": "37.301886402983605",
        "lon": "-122.03993284133387"
      }
    },
    {
      "address": "1587 Kennewick Dr, Sunnyvale, CA 94087",
      "location": {
        "lat": "37.34167008847911",
        "lon": "-122.0491139189052"
      }
    },
    {
      "address": "387 S Genevieve Ln, San Jose, CA 95128",
      "location": {
        "lat": "37.32174633641458",
        "lon": "-121.94221020793559"
      }
    },
    {
      "address": "80 Senter Rd, San Jose, CA 95111",
      "location": {
        "lat": "37.2779463148263",
        "lon": "-121.83345923000336"
      }
    },
    {
      "address": "2991 Monroe St, Santa Clara, CA 95051",
      "location": {
        "lat": "37.36438309993389",
        "lon": "-121.98112789338808"
      }
    },
    {
      "address": "813 Pierino Ave, Sunnyvale, CA 94086",
      "location": {
        "lat": "37.359953175881",
        "lon": "-122.02065953657895"
      }
    },
    {
      "address": "2350 Lundy Pl, San Jose, CA 95131",
      "location": {
        "lat": "37.40441813368672",
        "lon": "-121.88838444911599"
      }
    },
    {
      "address": "3310 Woodward Ave, Santa Clara, CA 95054",
      "location": {
        "lat": "37.381966318238995",
        "lon": "-121.94424858279451"
      }
    },
    {
      "address": "1135 Lick Ave, San Jose, CA 95110",
      "location": {
        "lat": "37.31420934019166",
        "lon": "-121.8844326385519"
      }
    },
    {
      "address": "2275 Cherry Ave, San Jose, CA 95125",
      "location": {
        "lat": "37.28518944187371",
        "lon": "-121.89734147428743"
      }
    },
    {
      "address": "435 Park Ave, San Jose, CA 95110",
      "location": {
        "lat": "37.3283400799047",
        "lon": "-121.89788765499065"
      }
    },
    {
      "address": "1713 Junction Ave, San Jose, CA 95112",
      "location": {
        "lat": "37.37365486652457",
        "lon": "-121.90767072437193"
      }
    },
    {
      "address": "5211 Elmwood Dr, San Jose, CA 95130",
      "location": {
        "lat": "37.287465363279765",
        "lon": "-121.99230039986895"
      }
    },
    {
      "address": "1748 Sweetbriar Dr, San Jose, CA 95125",
      "location": {
        "lat": "37.28142986760264",
        "lon": "-121.91064057303751"
      }
    },
    {
      "address": "801 N First St, San Jose, CA 95110",
      "location": {
        "lat": "37.351304524828784",
        "lon": "-121.90452105325241"
      }
    },
    {
      "address": "502 S Fourth St, San Jose, CA 95112",
      "location": {
        "lat": "37.3298616595132",
        "lon": "-121.88109110006232"
      }
    },
    {
      "address": "11281 Clayton Rd, San Jose, CA 95127",
      "location": {
        "lat": "37.35772151714755",
        "lon": "-121.79853996061094"
      }
    },
    {
      "address": "803 Dederick Ct, San Jose, CA 95125",
      "location": {
        "lat": "37.282936436450406",
        "lon": "-121.87390629697028"
      }
    },
    {
      "address": "1606 Peacock Ave, Sunnyvale, CA 94087",
      "location": {
        "lat": "37.34120153386908",
        "lon": "-122.00693248521483"
      }
    },
    {
      "address": "200 Marianna Way, Campbell, CA 95008",
      "location": {
        "lat": "37.289957218818515",
        "lon": "-121.96458320048286"
      }
    },
    {
      "address": "4654 Blanco Dr, San Jose, CA 95129",
      "location": {
        "lat": "37.307470993750215",
        "lon": "-121.98531195267338"
      }
    },
    {
      "address": "1369 Mauna Kea Ln, San Jose, CA 95132",
      "location": {
        "lat": "37.400206652042414",
        "lon": "-121.85412662228617"
      }
    },
    {
      "address": "2501 Alvin Ave, San Jose, CA 95121",
      "location": {
        "lat": "37.31843113641358",
        "lon": "-121.82637321098522"
      }
    },
    {
      "address": "360 S 11th St, San Jose, CA 95112",
      "location": {
        "lat": "37.335533242525365",
        "lon": "-121.87532796005608"
      }
    },
    {
      "address": "6588 Dartmoor Way, San Jose, CA 95129",
      "location": {
        "lat": "37.296798371654674",
        "lon": "-122.02009095381379"
      }
    },
    {
      "address": "2240 S Seventh St, San Jose, CA 95112",
      "location": {
        "lat": "37.30637397974235",
        "lon": "-121.85568248890525"
      }
    },
    {
      "address": "10381 S De Anza Blvd, Cupertino, CA 95014",
      "location": {
        "lat": "37.31759759352034",
        "lon": "-122.03329135375562"
      }
    },
    {
      "address": "850 W Parr Ave, Los Gatos, CA 95032",
      "location": {
        "lat": "37.26357315570128",
        "lon": "-121.97113478209391"
      }
    },
    {
      "address": "1126 Colonial Ln, San Jose, CA 95132",
      "location": {
        "lat": "37.397835058548026",
        "lon": "-121.83797475628742"
      }
    },
    {
      "address": "19411 San Marcos Rd, Saratoga, CA 95070",
      "location": {
        "lat": "37.259013530370105",
        "lon": "-122.0114113642432"
      }
    },
    {
      "address": "1079 Warren Ave, San Jose, CA 95125",
      "location": {
        "lat": "37.31234802548576",
        "lon": "-121.89570324815666"
      }
    },
    {
      "address": "1302 N Fourth St, San Jose, CA 95112",
      "location": {
        "lat": "37.36197384777628",
        "lon": "-121.90478050851891"
      }
    },
    {
      "address": "807 Beaver Creek Way, San Jose, CA 95133",
      "location": {
        "lat": "37.37684136006771",
        "lon": "-121.85811740470498"
      }
    },
    {
      "address": "3510 Ranch Pl, San Jose, CA 95132",
      "location": {
        "lat": "37.4092177141721",
        "lon": "-121.84362104512756"
      }
    },
    {
      "address": "5050 Russo Dr, San Jose, CA 95118",
      "location": {
        "lat": "37.254634250175855",
        "lon": "-121.8810507464187"
      }
    },
    {
      "address": "225 Union Ave, Campbell, CA 95008",
      "location": {
        "lat": "37.28361279010577",
        "lon": "-121.93690125978468"
      }
    },
    {
      "address": "1138 Raposa Dr, San Jose, CA 95121",
      "location": {
        "lat": "37.29881584735263",
        "lon": "-121.82177124955456"
      }
    },
    {
      "address": "3874 Pruneridge Ave, Santa Clara, CA 95051",
      "location": {
        "lat": "37.33214072773484",
        "lon": "-122.00353706788889"
      }
    },
    {
      "address": "175 Nortech Pkwy, San Jose, CA 95134",
      "location": {
        "lat": "37.424366288002794",
        "lon": "-121.95545888840655"
      }
    },
    {
      "address": "560 McCarthy Blvd, Milpitas, CA 95035",
      "location": {
        "lat": "37.418906440998406",
        "lon": "-121.92027101081678"
      }
    },
    {
      "address": "1414 Vallejo Dr, San Jose, CA 95130",
      "location": {
        "lat": "37.29869812771141",
        "lon": "-121.97852645997247"
      }
    },
    {
      "address": "2130 Cheryl Way, San Jose, CA 95125",
      "location": {
        "lat": "37.28722362157306",
        "lon": "-121.90155816875112"
      }
    },
    {
      "address": "830 Royal Palm Ct, San Jose, CA 95133",
      "location": {
        "lat": "37.3778817636148",
        "lon": "-121.85447215092174"
      }
    },
    {
      "address": "2830 Moorpark Ave, San Jose, CA 95128",
      "location": {
        "lat": "37.315648630598595",
        "lon": "-121.94406323993682"
      }
    },
    {
      "address": "4974 Gazania Dr, San Jose, CA 95111",
      "location": {
        "lat": "37.26745301593522",
        "lon": "-121.81637081614406"
      }
    },
    {
      "address": "1253 Mace Dr, San Jose, CA 95127",
      "location": {
        "lat": "37.36330747625277",
        "lon": "-121.80041417822883"
      }
    },
    {
      "address": "1512 Nuthatch Ln, Sunnyvale, CA 94087",
      "location": {
        "lat": "37.34408135132298",
        "lon": "-122.01056727490946"
      }
    },
    {
      "address": "485 Asbury St, San Jose, CA 95110",
      "location": {
        "lat": "37.344422346193866",
        "lon": "-121.91216836963656"
      }
    },
    {
      "address": "1194 N Mathilda Ave, Sunnyvale, CA 94089",
      "location": {
        "lat": "37.40995869157901",
        "lon": "-122.02597202059914"
      }
    },
    {
      "address": "12414 Brookglen Dr, Saratoga, CA 95070",
      "location": {
        "lat": "37.28798770936907",
        "lon": "-122.00488501387488"
      }
    },
    {
      "address": "4752 Elmhurst Dr, San Jose, CA 95129",
      "location": {
        "lat": "37.315038198763304",
        "lon": "-121.98591050994062"
      }
    },
    {
      "address": "640 Rettus Ct, San Jose, CA 95111",
      "location": {
        "lat": "37.30909522921416",
        "lon": "-121.84540652402623"
      }
    },
    {
      "address": "1188 Bordeaux Dr, Sunnyvale, CA 94089",
      "location": {
        "lat": "37.408433193082",
        "lon": "-122.02256632607312"
      }
    },
    {
      "address": "894 S Eighth St, San Jose, CA 95112",
      "location": {
        "lat": "37.326530140328785",
        "lon": "-121.87277807188393"
      }
    },
    {
      "address": "10307 Bret Ave, Cupertino, CA 95014",
      "location": {
        "lat": "37.31845683613758",
        "lon": "-122.00446269726771"
      }
    },
    {
      "address": "6740 John Dr, Cupertino, CA 95014",
      "location": {
        "lat": "37.31252043008427",
        "lon": "-122.02233493585017"
      }
    },
    {
      "address": "4953 Avenida de Lago, Santa Clara, CA 95054",
      "location": {
        "lat": "37.40717413282363",
        "lon": "-121.95882475700876"
      }
    },
    {
      "address": "2250 Almaden Expy, San Jose, CA 95125",
      "location": {
        "lat": "37.29346186435707",
        "lon": "-121.87642821206184"
      }
    },
    {
      "address": "1085 Tasman Dr, Sunnyvale, CA 94089",
      "location": {
        "lat": "37.405101253690106",
        "lon": "-122.00403812471208"
      }
    },
    {
      "address": "2266 Creek Bed Ct, Santa Clara, CA 95054",
      "location": {
        "lat": "37.393551539666724",
        "lon": "-121.96420481721258"
      }
    },
    {
      "address": "840 Emory Ave, Campbell, CA 95008",
      "location": {
        "lat": "37.274904734182236",
        "lon": "-121.95681764373352"
      }
    },
    {
      "address": "1145 Pine Ave, San Jose, CA 95125",
      "location": {
        "lat": "37.29767388388856",
        "lon": "-121.89525117513182"
      }
    },
    {
      "address": "3236 Blue Mountain Dr, San Jose, CA 95127",
      "location": {
        "lat": "37.34996711660305",
        "lon": "-121.80695690272995"
      }
    },
    {
      "address": "1501 W Campbell Ave, Campbell, CA 95008",
      "location": {
        "lat": "37.28689251395499",
        "lon": "-121.9757609466146"
      }
    },
    {
      "address": "1033 Wood Duck Ave, Santa Clara, CA 95051",
      "location": {
        "lat": "37.344544915270845",
        "lon": "-121.99657940827575"
      }
    },
    {
      "address": "2620 Sturla Dr, San Jose, CA 95148",
      "location": {
        "lat": "37.321868601899034",
        "lon": "-121.79966268740748"
      }
    },
    {
      "address": "821 McCarthy Blvd, Milpitas, CA 95035",
      "location": {
        "lat": "37.4165344552038",
        "lon": "-121.9188605861357"
      }
    },
    {
      "address": "545 Shadow Glen, San Jose, CA 95129",
      "location": {
        "lat": "37.316809407056695",
        "lon": "-121.97885362525702"
      }
    },
    {
      "address": "5139 Snow Dr, San Jose, CA 95111",
      "location": {
        "lat": "37.26785771892145",
        "lon": "-121.80354770138938"
      }
    },
    {
      "address": "605 Laurelwood Rd, Santa Clara, CA 95054",
      "location": {
        "lat": "37.38044520679302",
        "lon": "-121.94553586327673"
      }
    },
    {
      "address": "4443 Pinon Pl, San Jose, CA 95136",
      "location": {
        "lat": "37.270603292407834",
        "lon": "-121.83146899595434"
      }
    },
    {
      "address": "1447 Hanchett Ave, San Jose, CA 95126",
      "location": {
        "lat": "37.32829121910438",
        "lon": "-121.91845841200222"
      }
    },
    {
      "address": "4004 Williams Rd, San Jose, CA 95117",
      "location": {
        "lat": "37.30813860975911",
        "lon": "-121.9720218607025"
      }
    },
    {
      "address": "1094 W Maude Ave, Mountain View, CA 94085",
      "location": {
        "lat": "37.39378357651717",
        "lon": "-122.04534958315196"
      }
    },
    {
      "address": "490 Hyde Park Dr, San Jose, CA 95136",
      "location": {
        "lat": "37.2617369626447",
        "lon": "-121.84958764355741"
      }
    },
    {
      "address": "625 N McCarthy Blvd, Milpitas, CA 95035",
      "location": {
        "lat": "37.43582103125741",
        "lon": "-121.92443817685725"
      }
    },
    {
      "address": "1610 Monterey Hwy, San Jose, CA 95112",
      "location": {
        "lat": "37.3132787985589",
        "lon": "-121.87017728784586"
      }
    },
    {
      "address": "274 E Mission St, San Jose, CA 95112",
      "location": {
        "lat": "37.35399516398326",
        "lon": "-121.89594412119484"
      }
    },
    {
      "address": "13337 Pierce Rd, Saratoga, CA 95070",
      "location": {
        "lat": "37.27443946803904",
        "lon": "-122.04172977242098"
      }
    },
    {
      "address": "525 E Hamilton Ave, Campbell, CA 95008",
      "location": {
        "lat": "37.29693618470283",
        "lon": "-121.94034209547057"
      }
    },
    {
      "address": "20116 Chateau Dr, Saratoga, CA 95070",
      "location": {
        "lat": "37.279332885931204",
        "lon": "-122.02332514678825"
      }
    },
    {
      "address": "10900 N Blaney Ave, Cupertino, CA 95014",
      "location": {
        "lat": "37.335448319089124",
        "lon": "-122.02018644308988"
      }
    },
    {
      "address": "1200 W Latimer Ave, Campbell, CA 95008",
      "location": {
        "lat": "37.29039818927829",
        "lon": "-121.9712127598771"
      }
    },
    {
      "address": "5522 Sean Cir, San Jose, CA 95123",
      "location": {
        "lat": "37.25365579570037",
        "lon": "-121.82984082705354"
      }
    },
    {
      "address": "14675 Winchester Blvd, Los Gatos, CA 95032",
      "location": {
        "lat": "37.255588020065794",
        "lon": "-121.96717285722492"
      }
    },
    {
      "address": "18802 McFarland Ave, Saratoga, CA 95070",
      "location": {
        "lat": "37.277843032520515",
        "lon": "-121.99972585980343"
      }
    },
    {
      "address": "619 San Miguel Ave, Santa Clara, CA 95050",
      "location": {
        "lat": "37.337330702869394",
        "lon": "-121.96363106746266"
      }
    },
    {
      "address": "111 Hillsdale Ave, San Jose, CA 95136",
      "location": {
        "lat": "37.28270515235508",
        "lon": "-121.84616826497466"
      }
    },
    {
      "address": "2749 Glorietta Cir, Santa Clara, CA 95051",
      "location": {
        "lat": "37.32854795009161",
        "lon": "-121.97378839197646"
      }
    },
    {
      "address": "21990 Prospect Rd, Saratoga, CA 95070",
      "location": {
        "lat": "37.284561505922845",
        "lon": "-122.05383635724662"
      }
    },
    {
      "address": "3298 Woody Ln, San Jose, CA 95132",
      "location": {
        "lat": "37.41418316102133",
        "lon": "-121.86395843283039"
      }
    },
    {
      "address": "538 Carver St, San Jose, CA 95127",
      "location": {
        "lat": "37.37994822243023",
        "lon": "-121.83781202702951"
      }
    },
    {
      "address": "840 Quince Ave, Santa Clara, CA 95051",
      "location": {
        "lat": "37.3399942712262",
        "lon": "-121.9864427144068"
      }
    },
    {
      "address": "300 Grant St, Campbell, CA 95008",
      "location": {
        "lat": "37.28892862748601",
        "lon": "-121.94321608420827"
      }
    },
    {
      "address": "2315 Canoas Garden Ave, San Jose, CA 95125",
      "location": {
        "lat": "37.29086986170465",
        "lon": "-121.8752216390004"
      }
    },
    {
      "address": "1503 Little Orchard St, San Jose, CA 95110",
      "location": {
        "lat": "37.311560649373575",
        "lon": "-121.8767287134836"
      }
    },
    {
      "address": "3755 Pruneridge Ave, Santa Clara, CA 95051",
      "location": {
        "lat": "37.331782010068046",
        "lon": "-121.99957803883194"
      }
    },
    {
      "address": "2311 Elkhorn Ct, San Jose, CA 95125",
      "location": {
        "lat": "37.28414384645961",
        "lon": "-121.90185009019274"
      }
    },
    {
      "address": "1482 Shore Dr, San Jose, CA 95131",
      "location": {
        "lat": "37.372038851360784",
        "lon": "-121.88128472743277"
      }
    },
    {
      "address": "20888 Dunbar Dr, Cupertino, CA 95014",
      "location": {
        "lat": "37.32964580135077",
        "lon": "-122.03932809918638"
      }
    },
    {
      "address": "1028 Cynthia Ln, San Jose, CA 95129",
      "location": {
        "lat": "37.30895967955992",
        "lon": "-122.02438454701907"
      }
    },
    {
      "address": "862 S Wolfe Rd, Sunnyvale, CA 94086",
      "location": {
        "lat": "37.36058313336792",
        "lon": "-122.01372364113573"
      }
    },
    {
      "address": "2285 Cherry Ave, San Jose, CA 95125",
      "location": {
        "lat": "37.284876003025104",
        "lon": "-121.89713664990605"
      }
    },
    {
      "address": "3638 Tuers Rd, San Jose, CA 95121",
      "location": {
        "lat": "37.29525955332724",
        "lon": "-121.81930611477098"
      }
    },
    {
      "address": "1543 Rue Avati, San Jose, CA 95131",
      "location": {
        "lat": "37.38750413301452",
        "lon": "-121.87985433244928"
      }
    },
    {
      "address": "361 Paseo Refugio, Milpitas, CA 95035",
      "location": {
        "lat": "37.437804465502396",
        "lon": "-121.90054468440525"
      }
    },
    {
      "address": "1500 Duane Ave, Santa Clara, CA 95054",
      "location": {
        "lat": "37.37855755750827",
        "lon": "-121.95550910679859"
      }
    },
    {
      "address": "10730 N Blaney Ave, Cupertino, CA 95014",
      "location": {
        "lat": "37.33358605029271",
        "lon": "-122.02195272511149"
      }
    },
    {
      "address": "360 Emerick Ave, San Jose, CA 95127",
      "location": {
        "lat": "37.362437510742986",
        "lon": "-121.82142493218194"
      }
    },
    {
      "address": "1130 S 11th St, San Jose, CA 95112",
      "location": {
        "lat": "37.32432521398831",
        "lon": "-121.86743728873792"
      }
    },
    {
      "address": "4195 Sierra Rd, San Jose, CA 95132",
      "location": {
        "lat": "37.41578132503822",
        "lon": "-121.8246283914145"
      }
    },
    {
      "address": "2610 Boren Dr, San Jose, CA 95121",
      "location": {
        "lat": "37.31041443899081",
        "lon": "-121.83584973196925"
      }
    },
    {
      "address": "4934 McCoy Ave, San Jose, CA 95130",
      "location": {
        "lat": "37.276178931140706",
        "lon": "-121.98699914543658"
      }
    },
    {
      "address": "845 Lewis Ave, Sunnyvale, CA 94086",
      "location": {
        "lat": "37.37900156625783",
        "lon": "-122.03955380349252"
      }
    },
    {
      "address": "4951 Cherry Ave, San Jose, CA 95118",
      "location": {
        "lat": "37.25668434402744",
        "lon": "-121.88173904477603"
      }
    },
    {
      "address": "10071 Santa Clara Ave, Cupertino, CA 95014",
      "location": {
        "lat": "37.32355184957676",
        "lon": "-122.0518880177942"
      }
    },
    {
      "address": "1140 Yvette Ct, San Jose, CA 95118",
      "location": {
        "lat": "37.259783430374135",
        "lon": "-121.87809385371646"
      }
    },
    {
      "address": "2431 Futamase Ct, San Jose, CA 95111",
      "location": {
        "lat": "37.308208856682796",
        "lon": "-121.84392276952259"
      }
    },
    {
      "address": "582 Dunholme Way, Sunnyvale, CA 94087",
      "location": {
        "lat": "37.3446358361901",
        "lon": "-122.02763429155833"
      }
    },
    {
      "address": "1301 S Milpitas Blvd, Milpitas, CA 95035",
      "location": {
        "lat": "37.415787424437646",
        "lon": "-121.88880050351808"
      }
    },
    {
      "address": "1394 Socorro Ave, Sunnyvale, CA 94089",
      "location": {
        "lat": "37.389833195223794",
        "lon": "-121.98873030586311"
      }
    },
    {
      "address": "13879 Trinity Ave, Saratoga, CA 95070",
      "location": {
        "lat": "37.26643135685388",
        "lon": "-122.03887751799111"
      }
    },
    {
      "address": "1171 N Capitol Ave, San Jose, CA 95132",
      "location": {
        "lat": "37.38715694898164",
        "lon": "-121.8618792782066"
      }
    },
    {
      "address": "2140 Marlboro Ct, San Jose, CA 95128",
      "location": {
        "lat": "37.30951576224227",
        "lon": "-121.93021259996571"
      }
    },
    {
      "address": "1333 Norman Dr, Sunnyvale, CA 94087",
      "location": {
        "lat": "37.3509033383869",
        "lon": "-122.01017147294665"
      }
    },
    {
      "address": "2450 Zanker Rd, San Jose, CA 95131",
      "location": {
        "lat": "37.38744061120465",
        "lon": "-121.92170423714282"
      }
    },
    {
      "address": "3613 Deep Harbor Ct, San Jose, CA 95111",
      "location": {
        "lat": "37.290620313417186",
        "lon": "-121.82356611741011"
      }
    },
    {
      "address": "706 E Gish Rd, San Jose, CA 95112",
      "location": {
        "lat": "37.370033606333585",
        "lon": "-121.89561850535031"
      }
    },
    {
      "address": "3226 Scott Blvd, Santa Clara, CA 95054",
      "location": {
        "lat": "37.378761209274245",
        "lon": "-121.96721235561724"
      }
    },
    {
      "address": "19868 Bonnie Ridge Way, Saratoga, CA 95070",
      "location": {
        "lat": "37.27371480870109",
        "lon": "-122.02043701602871"
      }
    },
    {
      "address": "19550 Douglass Ln, Saratoga, CA 95070",
      "location": {
        "lat": "37.259258795482225",
        "lon": "-122.01498879750712"
      }
    },
    {
      "address": "1580 Park Ave, San Jose, CA 95126",
      "location": {
        "lat": "37.33160954872843",
        "lon": "-121.92097322602363"
      }
    },
    {
      "address": "840 Mulberry Ln, Sunnyvale, CA 94087",
      "location": {
        "lat": "37.36639338120134",
        "lon": "-122.05081157418115"
      }
    },
    {
      "address": "3610 El Camino Real, Santa Clara, CA 95051",
      "location": {
        "lat": "37.35196089357797",
        "lon": "-121.99759571202114"
      }
    },
    {
      "address": "1598 Laurelwood Crossing Pl, San Jose, CA 95138",
      "location": {
        "lat": "37.29094845764439",
        "lon": "-121.79950097906512"
      }
    },
    {
      "address": "13615 Vaquero Ct, Saratoga, CA 95070",
      "location": {
        "lat": "37.270911936008666",
        "lon": "-122.04902446115317"
      }
    },
    {
      "address": "878 Russet Dr, Sunnyvale, CA 94087",
      "location": {
        "lat": "37.362778028685184",
        "lon": "-122.03946863221269"
      }
    },
    {
      "address": "1960 The Alameda, San Jose, CA 95126",
      "location": {
        "lat": "37.34282313313276",
        "lon": "-121.92365717566665"
      }
    },
    {
      "address": "1856 MacDuee Way, San Jose, CA 95121",
      "location": {
        "lat": "37.30777248843504",
        "lon": "-121.80722826373136"
      }
    },
    {
      "address": "436 Page St, San Jose, CA 95126",
      "location": {
        "lat": "37.320805089716586",
        "lon": "-121.91489182675679"
      }
    },
    {
      "address": "645 Almanor Ave, Sunnyvale, CA 94085",
      "location": {
        "lat": "37.398283204347976",
        "lon": "-122.03061371857021"
      }
    },
    {
      "address": "2975 Glen Crow Ct, San Jose, CA 95148",
      "location": {
        "lat": "37.33291834548099",
        "lon": "-121.80014779430242"
      }
    },
    {
      "address": "15680 Woodard Rd, San Jose, CA 95124",
      "location": {
        "lat": "37.260131191490835",
        "lon": "-121.94402052168881"
      }
    },
    {
      "address": "1531 Queenstown Ct, Sunnyvale, CA 94087",
      "location": {
        "lat": "37.34391648564818",
        "lon": "-122.03866807878055"
      }
    },
    {
      "address": "5359 Pecan Blossom Dr, San Jose, CA 95123",
      "location": {
        "lat": "37.25741165619772",
        "lon": "-121.81120056045644"
      }
    },
    {
      "address": "18597 Devon Ave, Saratoga, CA 95070",
      "location": {
        "lat": "37.27886273016859",
        "lon": "-121.99601508677765"
      }
    },
    {
      "address": "1980 Senter Rd, San Jose, CA 95112",
      "location": {
        "lat": "37.31407425973848",
        "lon": "-121.85254404126677"
      }
    },
    {
      "address": "2520 Alvin Ave, San Jose, CA 95121",
      "location": {
        "lat": "37.3192219128418",
        "lon": "-121.82542235195547"
      }
    },
    {
      "address": "1235 Magnolia Ave, San Jose, CA 95126",
      "location": {
        "lat": "37.3328185108959",
        "lon": "-121.91752599697413"
      }
    },
    {
      "address": "2846 Sycamore Way, Santa Clara, CA 95051",
      "location": {
        "lat": "37.330579487327746",
        "lon": "-121.97783631457305"
      }
    },
    {
      "address": "550 Dawn Dr, Sunnyvale, CA 94087",
      "location": {
        "lat": "37.360261020600966",
        "lon": "-122.03457954430144"
      }
    },
    {
      "address": "1916 E San Antonio St, San Jose, CA 95116",
      "location": {
        "lat": "37.352110544223656",
        "lon": "-121.8477729150964"
      }
    },
    {
      "address": "3819 Steinbaugh Ct, San Jose, CA 95132",
      "location": {
        "lat": "37.40104106132577",
        "lon": "-121.82696407821733"
      }
    },
    {
      "address": "7200 Bollinger Rd, San Jose, CA 95129",
      "location": {
        "lat": "37.31096778454387",
        "lon": "-122.02996838250718"
      }
    },
    {
      "address": "2860 Junction Ave, San Jose, CA 95134",
      "location": {
        "lat": "37.399044031273824",
        "lon": "-121.9268858375503"
      }
    },
    {
      "address": "3211 Scott Blvd, Santa Clara, CA 95054",
      "location": {
        "lat": "37.37978007944398",
        "lon": "-121.96754239688659"
      }
    },
    {
      "address": "515 Crawford Dr, Sunnyvale, CA 94087",
      "location": {
        "lat": "37.36336334567564",
        "lon": "-122.03280513548287"
      }
    },
    {
      "address": "11051 Canyon Dr, San Jose, CA 95127",
      "location": {
        "lat": "37.38941933717509",
        "lon": "-121.81884747625898"
      }
    },
    {
      "address": "555 W Hacienda Ave, Campbell, CA 95008",
      "location": {
        "lat": "37.27006217234681",
        "lon": "-121.95949404972282"
      }
    },
    {
      "address": "880 Fox Ln, San Jose, CA 95131",
      "location": {
        "lat": "37.386837092756075",
        "lon": "-121.90325980777928"
      }
    },
    {
      "address": "719 Hibiscus Pl, San Jose, CA 95117",
      "location": {
        "lat": "37.313687220845836",
        "lon": "-121.9737362140613"
      }
    },
    {
      "address": "5551 Sweigert Rd, San Jose, CA 95132",
      "location": {
        "lat": "37.425207659231575",
        "lon": "-121.81058898222244"
      }
    },
    {
      "address": "3955 Yellowstone Dr, San Jose, CA 95130",
      "location": {
        "lat": "37.29886886189641",
        "lon": "-121.97108288924996"
      }
    },
    {
      "address": "2196 Toryglen Way, San Jose, CA 95121",
      "location": {
        "lat": "37.30623543658272",
        "lon": "-121.79794265583908"
      }
    },
    {
      "address": "3100 Lakeside Dr, Santa Clara, CA 95054",
      "location": {
        "lat": "37.386526586850984",
        "lon": "-121.98317579182556"
      }
    },
    {
      "address": "104 Greentree Way, Milpitas, CA 95035",
      "location": {
        "lat": "37.4095938327899",
        "lon": "-121.90455149493907"
      }
    },
    {
      "address": "1790 Coastland Ave, San Jose, CA 95125",
      "location": {
        "lat": "37.2999837598075",
        "lon": "-121.88631209376825"
      }
    },
    {
      "address": "1918 N Star Pl, San Jose, CA 95131",
      "location": {
        "lat": "37.40023707397244",
        "lon": "-121.8856625083041"
      }
    },
    {
      "address": "21215 Chadwick Ct, Saratoga, CA 95070",
      "location": {
        "lat": "37.277469841840386",
        "lon": "-122.0454172425993"
      }
    },
    {
      "address": "2940 Mead Ave, Santa Clara, CA 95051",
      "location": {
        "lat": "37.37153473210126",
        "lon": "-121.98041912600551"
      }
    },
    {
      "address": "1123 Spiro Dr, San Jose, CA 95116",
      "location": {
        "lat": "37.34035268260135",
        "lon": "-121.86042597164406"
      }
    },
    {
      "address": "4855 Atherton Ave, San Jose, CA 95130",
      "location": {
        "lat": "37.29478523083427",
        "lon": "-121.987207889163"
      }
    },
    {
      "address": "4548 Hamilton Ave, San Jose, CA 95130",
      "location": {
        "lat": "37.29346390561857",
        "lon": "-121.9822925055744"
      }
    },
    {
      "address": "3061 Zanker Rd, San Jose, CA 95134",
      "location": {
        "lat": "37.39809272673108",
        "lon": "-121.93269050040217"
      }
    },
    {
      "address": "14717 Nelson Way, San Jose, CA 95124",
      "location": {
        "lat": "37.256305472657445",
        "lon": "-121.92608632080587"
      }
    },
    {
      "address": "3575 Monroe St, Santa Clara, CA 95051",
      "location": {
        "lat": "37.36781677803273",
        "lon": "-121.99490620070826"
      }
    },
    {
      "address": "2211 Junction Ave, San Jose, CA 95131",
      "location": {
        "lat": "37.38527017639225",
        "lon": "-121.9154689514402"
      }
    },
    {
      "address": "1720 Halford Ave, Santa Clara, CA 95051",
      "location": {
        "lat": "37.35518769403934",
        "lon": "-121.99886778718638"
      }
    },
    {
      "address": "1330 Orleans Dr, Sunnyvale, CA 94089",
      "location": {
        "lat": "37.412227336520424",
        "lon": "-122.00555779354946"
      }
    },
    {
      "address": "922 Weddell Ct, Sunnyvale, CA 94089",
      "location": {
        "lat": "37.398550023794414",
        "lon": "-122.02046050330414"
      }
    },
    {
      "address": "120 Granite Rock Way, San Jose, CA 95136",
      "location": {
        "lat": "37.280923604284496",
        "lon": "-121.8426716086405"
      }
    },
    {
      "address": "275B E Campbell Ave, Campbell, CA 95008",
      "location": {
        "lat": "37.28722578310334",
        "lon": "-121.94459258248884"
      }
    },
    {
      "address": "805 Aldo Ave, Santa Clara, CA 95054",
      "location": {
        "lat": "37.38422028698941",
        "lon": "-121.94847576094763"
      }
    },
    {
      "address": "14288 Chester Ave, Saratoga, CA 95070",
      "location": {
        "lat": "37.260984548438934",
        "lon": "-122.00524515248603"
      }
    },
    {
      "address": "2654 Greenrock Rd, Milpitas, CA 95035",
      "location": {
        "lat": "37.42556769449145",
        "lon": "-121.85919544179654"
      }
    },
    {
      "address": "1501 McCarthy Blvd, Milpitas, CA 95035",
      "location": {
        "lat": "37.40863776416715",
        "lon": "-121.92135506871429"
      }
    },
    {
      "address": "4962 Ruttner Ct, San Jose, CA 95111",
      "location": {
        "lat": "37.274399743939185",
        "lon": "-121.80062457909496"
      }
    },
    {
      "address": "240 Michelle Dr, Campbell, CA 95008",
      "location": {
        "lat": "37.29013238781455",
        "lon": "-121.9721527600447"
      }
    },
    {
      "address": "120 Charcot Ave, San Jose, CA 95131",
      "location": {
        "lat": "37.37907716704777",
        "lon": "-121.92045017043935"
      }
    },
    {
      "address": "438 W Maude Ave, Sunnyvale, CA 94085",
      "location": {
        "lat": "37.38978560943123",
        "lon": "-122.03186301214159"
      }
    },
    {
      "address": "800 Spreckles Ave, San Jose, CA 95134",
      "location": {
        "lat": "37.43478914139583",
        "lon": "-121.97070371766901"
      }
    },
    {
      "address": "2720 Uridias Ranch Rd, Milpitas, CA 95035",
      "location": {
        "lat": "37.43914603764837",
        "lon": "-121.85676661199528"
      }
    },
    {
      "address": "421 S Monroe St, San Jose, CA 95128",
      "location": {
        "lat": "37.320664273430275",
        "lon": "-121.9435255253396"
      }
    },
    {
      "address": "1717 Lafayette St, Santa Clara, CA 95050",
      "location": {
        "lat": "37.35682600154582",
        "lon": "-121.94588337109836"
      }
    },
    {
      "address": "2054 Old Piedmont Rd, San Jose, CA 95132",
      "location": {
        "lat": "37.419809144233014",
        "lon": "-121.8506435573844"
      }
    },
    {
      "address": "14916 Freeman Ave, San Jose, CA 95127",
      "location": {
        "lat": "37.391689892798965",
        "lon": "-121.83262589158875"
      }
    },
    {
      "address": "975 Rock Canyon Cir, San Jose, CA 95127",
      "location": {
        "lat": "37.39300113100894",
        "lon": "-121.82856788024336"
      }
    },
    {
      "address": "2880 Scott Blvd, Santa Clara, CA 95050",
      "location": {
        "lat": "37.37281267722057",
        "lon": "-121.96247485602446"
      }
    },
    {
      "address": "19917 Merribrook Dr, Saratoga, CA 95070",
      "location": {
        "lat": "37.26967952929394",
        "lon": "-122.02141422612765"
      }
    },
    {
      "address": "1181 Valelake Ct, Sunnyvale, CA 94089",
      "location": {
        "lat": "37.39851027981549",
        "lon": "-121.9972653241092"
      }
    },
    {
      "address": "680 W Maude Ave, Sunnyvale, CA 94085",
      "location": {
        "lat": "37.389946858324365",
        "lon": "-122.03366986225427"
      }
    },
    {
      "address": "24 Cleaves Ave, San Jose, CA 95126",
      "location": {
        "lat": "37.33104368367767",
        "lon": "-121.90704486397527"
      }
    },
    {
      "address": "507 N Fifth St, San Jose, CA 95112",
      "location": {
        "lat": "37.34729651411313",
        "lon": "-121.89314354213946"
      }
    },
    {
      "address": "45 E Reed St, San Jose, CA 95112",
      "location": {
        "lat": "37.32746985395818",
        "lon": "-121.8832147132206"
      }
    },
    {
      "address": "501 Sycamore Dr, Milpitas, CA 95035",
      "location": {
        "lat": "37.410760127247386",
        "lon": "-121.9138791724445"
      }
    },
    {
      "address": "871 Rosemary Terrace, Sunnyvale, CA 94086",
      "location": {
        "lat": "37.356550710235894",
        "lon": "-122.01468792835698"
      }
    },
    {
      "address": "1190 N 13th St, San Jose, CA 95112",
      "location": {
        "lat": "37.36471260203209",
        "lon": "-121.8939162977148"
      }
    },
    {
      "address": "20846 Dunbar Dr, Cupertino, CA 95014",
      "location": {
        "lat": "37.32955231790843",
        "lon": "-122.03856746131594"
      }
    },
    {
      "address": "525 S 16th St, San Jose, CA 95112",
      "location": {
        "lat": "37.33515637171316",
        "lon": "-121.86973873914043"
      }
    },
    {
      "address": "1922 The Alameda, San Jose, CA 95126",
      "location": {
        "lat": "37.34187784539815",
        "lon": "-121.92248560640162"
      }
    },
    {
      "address": "358 San Jose Ave, San Jose, CA 95125",
      "location": {
        "lat": "37.307599302193545",
        "lon": "-121.87729051793113"
      }
    },
    {
      "address": "1319 Los Palos Way, San Jose, CA 95118",
      "location": {
        "lat": "37.26459572196029",
        "lon": "-121.88488250884504"
      }
    },
    {
      "address": "3078 Warrington Ave, San Jose, CA 95127",
      "location": {
        "lat": "37.352313235659",
        "lon": "-121.8164024787906"
      }
    },
    {
      "address": "12048 Parker Ranch Rd, Saratoga, CA 95070",
      "location": {
        "lat": "37.293683131084066",
        "lon": "-122.04134242422333"
      }
    },
    {
      "address": "12832 Star Ridge Ct, Saratoga, CA 95070",
      "location": {
        "lat": "37.28082595169994",
        "lon": "-122.04881141327142"
      }
    },
    {
      "address": "2666 Hill Park Dr, San Jose, CA 95124",
      "location": {
        "lat": "37.27399041615061",
        "lon": "-121.91432709809189"
      }
    },
    {
      "address": "191 N Central Ave, Campbell, CA 95008",
      "location": {
        "lat": "37.28999283174106",
        "lon": "-121.94359877257683"
      }
    },
    {
      "address": "2144 Royal Dr, Santa Clara, CA 95050",
      "location": {
        "lat": "37.3570603455774",
        "lon": "-121.96212087955001"
      }
    },
    {
      "address": "19545 Northampton Dr, Saratoga, CA 95070",
      "location": {
        "lat": "37.28779368763042",
        "lon": "-122.01389660618823"
      }
    },
    {
      "address": "1090 Lovell Ave, Campbell, CA 95008",
      "location": {
        "lat": "37.27220112666516",
        "lon": "-121.96816084980671"
      }
    },
    {
      "address": "10425 Anderson Rd, San Jose, CA 95127",
      "location": {
        "lat": "37.37629852531814",
        "lon": "-121.8083697927513"
      }
    },
    {
      "address": "19945 Braemar Dr, Saratoga, CA 95070",
      "location": {
        "lat": "37.27212750602011",
        "lon": "-122.02211196870557"
      }
    },
    {
      "address": "1239 Kaylene Ct, San Jose, CA 95127",
      "location": {
        "lat": "37.36083404144507",
        "lon": "-121.80654940796575"
      }
    },
    {
      "address": "1134 Oakbluff Ct, San Jose, CA 95131",
      "location": {
        "lat": "37.38104039481982",
        "lon": "-121.86732447004145"
      }
    },
    {
      "address": "522 N Monroe St, San Jose, CA 95128",
      "location": {
        "lat": "37.32725734265387",
        "lon": "-121.94296778258838"
      }
    },
    {
      "address": "3039 Rubino Cir, San Jose, CA 95125",
      "location": {
        "lat": "37.28104329832007",
        "lon": "-121.87598578221206"
      }
    },
    {
      "address": "785 Kiely Blvd, Santa Clara, CA 95051",
      "location": {
        "lat": "37.337770030338426",
        "lon": "-121.97586453329738"
      }
    },
    {
      "address": "2777 Scottsdale Dr, San Jose, CA 95148",
      "location": {
        "lat": "37.31995224078074",
        "lon": "-121.80415999868266"
      }
    },
    {
      "address": "3167 Sierra Rd, San Jose, CA 95132",
      "location": {
        "lat": "37.39819009182087",
        "lon": "-121.85062943434907"
      }
    },
    {
      "address": "1252 State St, San Jose, CA 95002",
      "location": {
        "lat": "37.42796974414808",
        "lon": "-121.97404599726309"
      }
    },
    {
      "address": "830 W Maude Ave, Mountain View, CA 94043",
      "location": {
        "lat": "37.397274350339984",
        "lon": "-122.0491514444044"
      }
    },
    {
      "address": "1964 Abinante Ln, San Jose, CA 95124",
      "location": {
        "lat": "37.27013939820256",
        "lon": "-121.92905029357375"
      }
    },
    {
      "address": "2298 Warfield Way, San Jose, CA 95122",
      "location": {
        "lat": "37.31373353235028",
        "lon": "-121.84171716680918"
      }
    },
    {
      "address": "286 N Abbott Ave, Milpitas, CA 95035",
      "location": {
        "lat": "37.43325188779033",
        "lon": "-121.91502995207439"
      }
    },
    {
      "address": "1350 Oakland Rd, San Jose, CA 95112",
      "location": {
        "lat": "37.370484585747974",
        "lon": "-121.89186306125842"
      }
    },
    {
      "address": "1115 Walsh Ave, Santa Clara, CA 95050",
      "location": {
        "lat": "37.371510636868486",
        "lon": "-121.95230089912606"
      }
    },
    {
      "address": "1035 Wilsham Dr, San Jose, CA 95132",
      "location": {
        "lat": "37.38527939413896",
        "lon": "-121.85545474803641"
      }
    },
    {
      "address": "1390 Glacier Dr, San Jose, CA 95118",
      "location": {
        "lat": "37.262969584325525",
        "lon": "-121.88779624972791"
      }
    },
    {
      "address": "3278 Hebron Ct, San Jose, CA 95121",
      "location": {
        "lat": "37.31101140521278",
        "lon": "-121.79725432202355"
      }
    },
    {
      "address": "4569 Ross Ave, San Jose, CA 95124",
      "location": {
        "lat": "37.25395030930283",
        "lon": "-121.91056615274566"
      }
    },
    {
      "address": "3529 Agate Dr, Santa Clara, CA 95051",
      "location": {
        "lat": "37.36994625981166",
        "lon": "-121.99403252406724"
      }
    },
    {
      "address": "21153 Patriot Way, Cupertino, CA 95014",
      "location": {
        "lat": "37.32423853093189",
        "lon": "-122.04386111989011"
      }
    },
    {
      "address": "295 E Hamilton Ave, Campbell, CA 95008",
      "location": {
        "lat": "37.294585156966356",
        "lon": "-121.94516287743976"
      }
    },
    {
      "address": "62 George St, San Jose, CA 95110",
      "location": {
        "lat": "37.347266153744386",
        "lon": "-121.90029046468048"
      }
    },
    {
      "address": "527 Hubbard Ave, Santa Clara, CA 95051",
      "location": {
        "lat": "37.331089374752466",
        "lon": "-122.00356342522988"
      }
    },
    {
      "address": "1988 Shenandoah Ave, Milpitas, CA 95035",
      "location": {
        "lat": "37.42940529108412",
        "lon": "-121.86850020592465"
      }
    },
    {
      "address": "425 Paria Terrace, Sunnyvale, CA 94089",
      "location": {
        "lat": "37.40474096093994",
        "lon": "-122.01383286258516"
      }
    },
    {
      "address": "2645 Zanker Rd, San Jose, CA 95134",
      "location": {
        "lat": "37.3895480962392",
        "lon": "-121.92600297993374"
      }
    },
    {
      "address": "101 Paseo De San Antonio, San Jose, CA 95113",
      "location": {
        "lat": "37.333561518382105",
        "lon": "-121.88595131725279"
      }
    },
    {
      "address": "404 El Cajon Dr, San Jose, CA 95111",
      "location": {
        "lat": "37.28235158677995",
        "lon": "-121.82689580019361"
      }
    },
    {
      "address": "29 Cecil Ave, San Jose, CA 95128",
      "location": {
        "lat": "37.32403413810617",
        "lon": "-121.93433984096774"
      }
    },
    {
      "address": "1202 S Sixth St, San Jose, CA 95112",
      "location": {
        "lat": "37.32001764189766",
        "lon": "-121.87216014456139"
      }
    },
    {
      "address": "2797 Kern Ave, San Jose, CA 95121",
      "location": {
        "lat": "37.30694155662421",
        "lon": "-121.82777273678693"
      }
    },
    {
      "address": "391 E McGlincy Ln, Campbell, CA 95008",
      "location": {
        "lat": "37.27697914139877",
        "lon": "-121.9429919327534"
      }
    },
    {
      "address": "3046 Ryan Ave, Santa Clara, CA 95051",
      "location": {
        "lat": "37.335155651139225",
        "lon": "-121.98537808927756"
      }
    },
    {
      "address": "1005 Nevada Pl, San Jose, CA 95125",
      "location": {
        "lat": "37.302594320851426",
        "lon": "-121.8932840522606"
      }
    },
    {
      "address": "1225 Montague Expy, Milpitas, CA 95035",
      "location": {
        "lat": "37.414300089451274",
        "lon": "-121.8824232303232"
      }
    },
    {
      "address": "2030 Lockwood Dr, San Jose, CA 95132",
      "location": {
        "lat": "37.415553293040325",
        "lon": "-121.86026818089024"
      }
    },
    {
      "address": "175 Falcato Dr, Milpitas, CA 95035",
      "location": {
        "lat": "37.435711210214",
        "lon": "-121.87145109333687"
      }
    },
    {
      "address": "402 Union Ave, Campbell, CA 95008",
      "location": {
        "lat": "37.28066274790218",
        "lon": "-121.93513160624245"
      }
    },
    {
      "address": "31 Muller Pl, San Jose, CA 95126",
      "location": {
        "lat": "37.324435114549345",
        "lon": "-121.91676007412627"
      }
    },
    {
      "address": "922 Franquette Ave, San Jose, CA 95125",
      "location": {
        "lat": "37.29226728757325",
        "lon": "-121.88354127840465"
      }
    },
    {
      "address": "2054 Terilyn Ave, San Jose, CA 95122",
      "location": {
        "lat": "37.325120505384355",
        "lon": "-121.83515435171127"
      }
    },
    {
      "address": "2755 Great America Way, Santa Clara, CA 95054",
      "location": {
        "lat": "37.41463307506135",
        "lon": "-121.97647175607327"
      }
    },
    {
      "address": "7739 Robindell Way, Cupertino, CA 95014",
      "location": {
        "lat": "37.30354072372304",
        "lon": "-122.04208172858958"
      }
    },
    {
      "address": "422 Avenida Arboles, San Jose, CA 95123",
      "location": {
        "lat": "37.254780415502495",
        "lon": "-121.84008716621048"
      }
    },
    {
      "address": "762 W Knickerbocker Dr, Sunnyvale, CA 94087",
      "location": {
        "lat": "37.361389571283496",
        "lon": "-122.04421470738491"
      }
    },
    {
      "address": "702 Minnesota Ave, San Jose, CA 95125",
      "location": {
        "lat": "37.30868617675049",
        "lon": "-121.88889459183473"
      }
    },
    {
      "address": "2187 Dahlia Ct, San Jose, CA 95133",
      "location": {
        "lat": "37.38154925158315",
        "lon": "-121.86170384018656"
      }
    },
    {
      "address": "1790 Las Plumas Ave, San Jose, CA 95133",
      "location": {
        "lat": "37.36319863210937",
        "lon": "-121.86348808255437"
      }
    },
    {
      "address": "686 S Daniel Way, San Jose, CA 95128",
      "location": {
        "lat": "37.314609642899136",
        "lon": "-121.94099015422523"
      }
    },
    {
      "address": "1640 Coleman Ave, Santa Clara, CA 95050",
      "location": {
        "lat": "37.359835642676344",
        "lon": "-121.93694496390066"
      }
    },
    {
      "address": "1733 De Marietta Ave, San Jose, CA 95126",
      "location": {
        "lat": "37.30316223892949",
        "lon": "-121.92440984962712"
      }
    },
    {
      "address": "365 E San Fernando St, San Jose, CA 95112",
      "location": {
        "lat": "37.33818618826177",
        "lon": "-121.8816357097993"
      }
    },
    {
      "address": "1432 Portola Dr, Milpitas, CA 95035",
      "location": {
        "lat": "37.42220031325472",
        "lon": "-121.87619720045066"
      }
    },
    {
      "address": "2803 Rainview Dr, San Jose, CA 95133",
      "location": {
        "lat": "37.37663243536583",
        "lon": "-121.84537977330072"
      }
    },
    {
      "address": "3144 Acorn Ct, San Jose, CA 95117",
      "location": {
        "lat": "37.30725237006001",
        "lon": "-121.95204485964798"
      }
    },
    {
      "address": "647 S Sixth St, San Jose, CA 95112",
      "location": {
        "lat": "37.328789477288815",
        "lon": "-121.87806138736177"
      }
    },
    {
      "address": "2201 Laurelwood Rd, Santa Clara, CA 95054",
      "location": {
        "lat": "37.38384641684102",
        "lon": "-121.96450170456056"
      }
    },
    {
      "address": "60 Kirk Ave, San Jose, CA 95127",
      "location": {
        "lat": "37.37711900502373",
        "lon": "-121.82295940200052"
      }
    },
    {
      "address": "1746 Yosemite Dr, Milpitas, CA 95035",
      "location": {
        "lat": "37.42945238815423",
        "lon": "-121.87288373384922"
      }
    },
    {
      "address": "1235 Flora Ave, San Jose, CA 95117",
      "location": {
        "lat": "37.302570827984916",
        "lon": "-121.97621088481405"
      }
    },
    {
      "address": "181 Parc Place Dr, Milpitas, CA 95035",
      "location": {
        "lat": "37.42069807645539",
        "lon": "-121.9008477572266"
      }
    },
    {
      "address": "369 Gridley Ct, San Jose, CA 95127",
      "location": {
        "lat": "37.37926082410045",
        "lon": "-121.8319226821478"
      }
    },
    {
      "address": "1500 Duane Ave, Santa Clara, CA 95054",
      "location": {
        "lat": "37.37925877051195",
        "lon": "-121.95634324048348"
      }
    },
    {
      "address": "3150 Loma Verde Dr, San Jose, CA 95117",
      "location": {
        "lat": "37.29841152428757",
        "lon": "-121.95143438283891"
      }
    },
    {
      "address": "301 Ranch Dr, Milpitas, CA 95035",
      "location": {
        "lat": "37.43078944727015",
        "lon": "-121.92015009504658"
      }
    },
    {
      "address": "3952 Malvini Dr, San Jose, CA 95118",
      "location": {
        "lat": "37.26543610520698",
        "lon": "-121.88844587521635"
      }
    },
    {
      "address": "2506 Sue Ave, San Jose, CA 95111",
      "location": {
        "lat": "37.30498352865638",
        "lon": "-121.84556121940591"
      }
    },
    {
      "address": "890 E Arques Ave, Sunnyvale, CA 94085",
      "location": {
        "lat": "37.37914843228352",
        "lon": "-122.0106980302256"
      }
    },
    {
      "address": "14452 Evans Ln, Saratoga, CA 95070",
      "location": {
        "lat": "37.25920088830155",
        "lon": "-121.99418941945572"
      }
    },
    {
      "address": "4960 Birmingham Dr, San Jose, CA 95136",
      "location": {
        "lat": "37.262016061431815",
        "lon": "-121.84644805937921"
      }
    },
    {
      "address": "577 Penitencia St, Milpitas, CA 95035",
      "location": {
        "lat": "37.43403790755364",
        "lon": "-121.91221978355853"
      }
    },
    {
      "address": "616 Cheshire Way, Sunnyvale, CA 94087",
      "location": {
        "lat": "37.347985711379344",
        "lon": "-122.02579651910162"
      }
    },
    {
      "address": "1460 Fremont St, Santa Clara, CA 95050",
      "location": {
        "lat": "37.34949411957353",
        "lon": "-121.95101552873925"
      }
    },
    {
      "address": "1494 Lupton Ave, San Jose, CA 95125",
      "location": {
        "lat": "37.299002149823366",
        "lon": "-121.90147846235843"
      }
    },
    {
      "address": "14643 Eastview Dr, Los Gatos, CA 95032",
      "location": {
        "lat": "37.255657528507584",
        "lon": "-121.97353639492978"
      }
    },
    {
      "address": "350 Martin Ave, Santa Clara, CA 95050",
      "location": {
        "lat": "37.36325470836282",
        "lon": "-121.93873255145229"
      }
    },
    {
      "address": "1385 Lucretia Ave, San Jose, CA 95122",
      "location": {
        "lat": "37.32644074191979",
        "lon": "-121.853856642037"
      }
    },
    {
      "address": "2270 Monterey Hwy, San Jose, CA 95112",
      "location": {
        "lat": "37.303180279881744",
        "lon": "-121.86013831280088"
      }
    },
    {
      "address": "3147 Cayman Pl, San Jose, CA 95127",
      "location": {
        "lat": "37.38899408046334",
        "lon": "-121.84418667046714"
      }
    },
    {
      "address": "21682 Olive Ave, Cupertino, CA 95014",
      "location": {
        "lat": "37.31895209530796",
        "lon": "-122.05410072675328"
      }
    },
    {
      "address": "14175 Douglass Ln, Saratoga, CA 95070",
      "location": {
        "lat": "37.262362332923686",
        "lon": "-122.02320046562993"
      }
    },
    {
      "address": "797 E William St, San Jose, CA 95112",
      "location": {
        "lat": "37.33675017328394",
        "lon": "-121.86909549855794"
      }
    },
    {
      "address": "3410 Waterman Ct, San Jose, CA 95127",
      "location": {
        "lat": "37.38390202174698",
        "lon": "-121.83174515287251"
      }
    },
    {
      "address": "482 S Abbott Ave, Milpitas, CA 95035",
      "location": {
        "lat": "37.42279249347698",
        "lon": "-121.9130966922768"
      }
    },
    {
      "address": "4244 Tanbark St, San Jose, CA 95129",
      "location": {
        "lat": "37.31358491121696",
        "lon": "-121.97783549546295"
      }
    },
    {
      "address": "467 Norwood Cir, Santa Clara, CA 95051",
      "location": {
        "lat": "37.330644252072446",
        "lon": "-121.99607832301146"
      }
    },
    {
      "address": "360 Chateau La Salle Dr, San Jose, CA 95111",
      "location": {
        "lat": "37.292393461795456",
        "lon": "-121.85758940662784"
      }
    },
    {
      "address": "1948 Foxworthy Ave, San Jose, CA 95124",
      "location": {
        "lat": "37.26701066044925",
        "lon": "-121.92781197020633"
      }
    },
    {
      "address": "1720 Old Bayshore Hwy, San Jose, CA 95112",
      "location": {
        "lat": "37.369813252457355",
        "lon": "-121.90757298904724"
      }
    },
    {
      "address": "1204 Morrill Ct, San Jose, CA 95132",
      "location": {
        "lat": "37.39259374048941",
        "lon": "-121.85713365803068"
      }
    },
    {
      "address": "585 Santa Rosalia Terrace, Sunnyvale, CA 94085",
      "location": {
        "lat": "37.387678364723016",
        "lon": "-122.00218451158472"
      }
    },
    {
      "address": "375 Chateau La Salle Dr, San Jose, CA 95111",
      "location": {
        "lat": "37.29166834152049",
        "lon": "-121.85797963354457"
      }
    },
    {
      "address": "1646 Fawn Ct, Campbell, CA 95008",
      "location": {
        "lat": "37.270125807536736",
        "lon": "-121.97886824673374"
      }
    },
    {
      "address": "590 Old San Francisco Rd, Sunnyvale, CA 94086",
      "location": {
        "lat": "37.36677632473466",
        "lon": "-122.02360263400654"
      }
    },
    {
      "address": "1366 Glenmoor Way, San Jose, CA 95129",
      "location": {
        "lat": "37.298824425615486",
        "lon": "-122.02018011747518"
      }
    },
    {
      "address": "2371 Bering Dr, San Jose, CA 95131",
      "location": {
        "lat": "37.38282640473026",
        "lon": "-121.92121389134277"
      }
    },
    {
      "address": "2805 Lafayette St, Santa Clara, CA 95050",
      "location": {
        "lat": "37.372389157220894",
        "lon": "-121.94955271318494"
      }
    },
    {
      "address": "5971 W Walbrook Dr, San Jose, CA 95129",
      "location": {
        "lat": "37.299802798147056",
        "lon": "-122.00913407498513"
      }
    },
    {
      "address": "4398 Zanker Rd, San Jose, CA 95134",
      "location": {
        "lat": "37.43477890091285",
        "lon": "-121.93499710023401"
      }
    },
    {
      "address": "260 Doris Ave, San Jose, CA 95127",
      "location": {
        "lat": "37.36074747106807",
        "lon": "-121.82850866825846"
      }
    },
    {
      "address": "12833 Star Ridge Ct, Saratoga, CA 95070",
      "location": {
        "lat": "37.28018620999979",
        "lon": "-122.0486971203094"
      }
    },
    {
      "address": "21272 Chiquita Way, Saratoga, CA 95070",
      "location": {
        "lat": "37.27402808317129",
        "lon": "-122.04624783988912"
      }
    },
    {
      "address": "13360 Old Oak Way, Saratoga, CA 95070",
      "location": {
        "lat": "37.27420357230335",
        "lon": "-122.04659444792358"
      }
    },
    {
      "address": "3845 Suncrest Ave, San Jose, CA 95132",
      "location": {
        "lat": "37.40156925623212",
        "lon": "-121.8261931664074"
      }
    },
    {
      "address": "1341 Hapland Ct, San Jose, CA 95131",
      "location": {
        "lat": "37.38233282024112",
        "lon": "-121.87599905360179"
      }
    },
    {
      "address": "846 College Dr, San Jose, CA 95128",
      "location": {
        "lat": "37.31170742764213",
        "lon": "-121.91916191231758"
      }
    },
    {
      "address": "777 Sunnyvale-Saratoga Rd, Sunnyvale, CA 94087",
      "location": {
        "lat": "37.36619191775597",
        "lon": "-122.03364726204077"
      }
    },
    {
      "address": "1384 Darryl Dr, San Jose, CA 95130",
      "location": {
        "lat": "37.29891743757872",
        "lon": "-121.96391626253482"
      }
    },
    {
      "address": "232 Elm Wood Ct, Los Gatos, CA 95032",
      "location": {
        "lat": "37.2641537950953",
        "lon": "-121.97723119169048"
      }
    },
    {
      "address": "49 N 32nd St, San Jose, CA 95116",
      "location": {
        "lat": "37.35111888932793",
        "lon": "-121.86069242130601"
      }
    },
    {
      "address": "1578 Willowdale Dr, San Jose, CA 95118",
      "location": {
        "lat": "37.26531553289953",
        "lon": "-121.90014114538664"
      }
    },
    {
      "address": "665 Clyde Ave, Mountain View, CA 94043",
      "location": {
        "lat": "37.40241633648409",
        "lon": "-122.04806331068993"
      }
    },
    {
      "address": "897 Kingfisher Dr, San Jose, CA 95125",
      "location": {
        "lat": "37.28609214993563",
        "lon": "-121.87837640607232"
      }
    },
    {
      "address": "21040 Cory Ct, Cupertino, CA 95014",
      "location": {
        "lat": "37.313182627983345",
        "lon": "-122.0421451325824"
      }
    },
    {
      "address": "4350 Hilton Ave, San Jose, CA 95130",
      "location": {
        "lat": "37.294449155242965",
        "lon": "-121.97844872189985"
      }
    },